[
    {"name":"Aclaraci\u00F3n administrativa de acta","points":[{"lat":20.7208756073292, "lng":-103.392612934113}],"place":"Oficial\u00EDa No. 1 Unidad Bas\u00EDlica","address":" \r\nUnidad Administrativa Bas\u00EDlica 1er. Piso s\/n Cabecera Municipal 45100"},
    {"name":"Acreditaci\u00F3n de estacionamiento para personas con capacidades diferentes, incapacidad temporal, adultos mayores y mujeres embarazadas","points":[{"lat":20.7516994476318, "lng":-103.361999511719}],"place":"Dir. Estacionometros","address":" \r\nEmiliano Zapata 29 Cabecera Municipal 45100"},
    {"name":"Acta de adopci\u00F3n (simple) \/ Acta de nacimiento (plena)","points":[{"lat":20.7210006713867, "lng":-103.391998291016}],"place":"Dir. de Registro Civil","address":" \r\nUnidad Administrativa Bas\u00EDlica, 1er. Piso s\/n Cabecera Municipal 45100"},
    {"name":"Acta de avenimiento para divorcio administrativo","points":[{"lat":20.7367000579834, "lng":-103.402000427246}],"place":"Procuradur\u00EDa de la Defensa del Menor y la Familia","address":" \r\nAv. Laureles 777 Unidad FOVISSSTE 45149"},
    {"name":"Acta de defunci\u00F3n","points":[{"lat":20.7210006713867, "lng":-103.391998291016}],"place":"Dir. de Registro Civil","address":" \r\nUnidad Administrativa Bas\u00EDlica, 1er. Piso s\/n Cabecera Municipal 45100"},
    {"name":"Acta de divorcio","points":[{"lat":20.7210006713867, "lng":-103.391998291016}],"place":"Dir. de Registro Civil","address":" \r\nUnidad Administrativa Bas\u00EDlica, 1er. Piso s\/n Cabecera Municipal 45100"},
    {"name":"Acta de inscripci\u00F3n de matrimonio y nacimiento (extranjeros)","points":[{"lat":20.7210006713867, "lng":-103.391998291016}],"place":"Dir. de Registro Civil","address":" \r\nUnidad Administrativa Bas\u00EDlica, 1er. Piso s\/n Cabecera Municipal 45100"},
    {"name":"Acta de inscripci\u00F3n de sentencia","points":[{"lat":20.7210006713867, "lng":-103.391998291016}],"place":"Dir. de Registro Civil","address":" \r\nUnidad Administrativa Bas\u00EDlica, 1er. Piso s\/n Cabecera Municipal 45100"},
    {"name":"Matrimonio Civil ","points":[{"lat":20.7210006713867, "lng":-103.391998291016}],"place":"Dir. de Registro Civil","address":" \r\nUnidad Administrativa Bas\u00EDlica, 1er. Piso s\/n Cabecera Municipal 45100"},
    {"name":"Acta de nacimiento","points":[{"lat":20.7210006713867, "lng":-103.391998291016}],"place":"Dir. de Registro Civil","address":" \r\nUnidad Administrativa Bas\u00EDlica, 1er. Piso s\/n Cabecera Municipal 45100"},
    {"name":"Registro Extempor\u00E1neo de nacimiento ","points":[{"lat":20.7210006713867, "lng":-103.391998291016}],"place":"Dir. de Registro Civil","address":" \r\nUnidad Administrativa Bas\u00EDlica, 1er. Piso s\/n Cabecera Municipal 45100"},
    {"name":"Acta de reconocimiento","points":[{"lat":20.7210006713867, "lng":-103.391998291016}],"place":"Dir. de Registro Civil","address":" \r\nUnidad Administrativa Bas\u00EDlica, 1er. Piso s\/n Cabecera Municipal 45100"},
    {"name":"Acta de tutela","points":[{"lat":20.7210006713867, "lng":-103.391998291016}],"place":"Dir. de Registro Civil","address":" \r\nUnidad Administrativa Bas\u00EDlica, 1er. Piso s\/n Cabecera Municipal 45100"},
    {"name":"Actualizaci\u00F3n de clave catastral y\/o cartograf\u00EDa","points":[{"lat":20.7370308430945, "lng":-103.376970291138}],"place":"Dir. de Catastro","address":" \r\nAv. Parres Arias esquina Perif\u00E9rico Norte S\/N Parque Industrial Belenes 45140"},
    {"name":"Actualizaci\u00F3n de domicilio de notificaci\u00F3n","points":[{"lat":20.7370308430945, "lng":-103.376970291138}],"place":"Dir. de Catastro","address":" \r\nAv. Parres Arias esquina Perif\u00E9rico Norte S\/N Parque Industrial Belenes 45140"},
    {"name":"Actualizaci\u00F3n de superficie de construcci\u00F3n","points":[{"lat":20.7370308430945, "lng":-103.376970291138}],"place":"Dir. de Catastro","address":" \r\nAv. Parres Arias esquina Perif\u00E9rico Norte S\/N Parque Industrial Belenes 45140"},
    {"name":"Actualizaci\u00F3n de superficie de terreno ","points":[{"lat":20.7370308430945, "lng":-103.376970291138}],"place":"Dir. de Catastro","address":" \r\nAv. Parres Arias esquina Perif\u00E9rico Norte S\/N Parque Industrial Belenes 45140"},
    {"name":"Rectificaci\u00F3n de valor","points":[{"lat":20.7370308430945, "lng":-103.376970291138}],"place":"Dir. de Catastro","address":" \r\nAv. Parres Arias esquina Perif\u00E9rico Norte S\/N Parque Industrial Belenes 45140"},
    {"name":"Actualizaci\u00F3n de ubicaci\u00F3n ","points":[{"lat":20.7370308430945, "lng":-103.376970291138}],"place":"Dir. de Catastro","address":" \r\nAv. Parres Arias esquina Perif\u00E9rico Norte S\/N Parque Industrial Belenes 45140"},
    {"name":"Acuacultura de subsistencia","points":[{"lat":20.7509002685547, "lng":-103.38500213623}],"place":"Dir. de Desarrollo Agropecuario","address":" \r\nPaseo de los Robles 1566 Jardines el Vergel 45700"},
    {"name":"Adolescentes en conflicto con la ley","points":[{"lat":20.7367000579834, "lng":-103.402000427246}],"place":"Prevenci\u00F3n de Riesgos Psicosociales","address":" \r\nAv. Laureles, Esquina Perif\u00E9rico 1151 Unidad FOVISSSTE 45149"},
    {"name":"Certificado de Alineamiento y N\u00FAmero Oficial","points":[{"lat":20.7354655664891, "lng":-103.377163410187}],"place":"Sub-Dir. T\u00E9cnica","address":" \r\n Av. Parres Arias esquina Perif\u00E9rico S\/N Parque Industrial Belenes 45145"},
    {"name":"Ampliaci\u00F3n de licencia de giro comercial","points":[{"lat":20.7356662438817, "lng":-103.377141952515}],"place":"Oficial\u00EDa Mayor Padr\u00F3n y Licencias","address":" \r\n Av. Parres Arias esquina Perif\u00E9rico s\/n Parque Industrial Belenes 45140"},
    {"name":"An\u00E1lisis en Campo (Diagn\u00F3stico)","points":[{"lat":20.692699432373, "lng":-103.452003479004}],"place":"Dir. de Fomento Cooperativo","address":" \r\nAv. Vallarta 6503-F65 Ciudad Granja 45010"},
    {"name":"Anestesiolog\u00EDa","points":[{"lat":17.1403007507324, "lng":-96.7567977905273}],"place":"Hospital General de Zapopan","address":" \r\nCol\u00F3n 289 Cabecera Municipal 45100"},
    {"name":"Anexo de licencia de giro comercial ","points":[{"lat":20.7356662438817, "lng":-103.377141952515}],"place":"Oficial\u00EDa Mayor Padr\u00F3n y Licencias","address":" \r\n Av. Parres Arias esquina Perif\u00E9rico s\/n Parque Industrial Belenes 45140"},
    {"name":"Anotaci\u00F3n marginal por orden judicial o escritura p\u00FAblica","points":[{"lat":20.7210006713867, "lng":-103.391998291016}],"place":"Dir. de Registro Civil","address":" \r\nUnidad Administrativa Bas\u00EDlica, 1er. Piso s\/n Cabecera Municipal 45100"},
    {"name":"Apertura de cuenta predial (primera inscripci\u00F3n).","points":[{"lat":20.7370308430945, "lng":-103.376970291138}],"place":"Dir. de Catastro","address":" \r\nAv. Parres Arias esquina Perif\u00E9rico Norte S\/N Parque Industrial Belenes 45140"},
    {"name":"Subdivisiones o relotificaciones de predios r\u00FAsticos mayores a una hect\u00E1rea (SEGREGACI\u00F3N)","points":[{"lat":20.7370308430945, "lng":-103.376970291138}],"place":"Dir. de Catastro","address":" \r\nAv. Parres Arias esquina Perif\u00E9rico Norte S\/N Parque Industrial Belenes 45140"},
    {"name":"Apertura de cuenta predial por traslado de municipio.","points":[{"lat":20.7370308430945, "lng":-103.376970291138}],"place":"Dir. de Catastro","address":" \r\nAv. Parres Arias esquina Perif\u00E9rico Norte S\/N Parque Industrial Belenes 45140"},
    {"name":"Apertura de fraccionamiento.","points":[{"lat":20.7370308430945, "lng":-103.376970291138}],"place":"Dir. de Catastro","address":" \r\nAv. Parres Arias esquina Perif\u00E9rico Norte S\/N Parque Industrial Belenes 45140"},
    {"name":"Aplicaci\u00F3n de vacunas","points":[{"lat":17.1403007507324, "lng":-96.7567977905273}],"place":"Hospital General de Zapopan","address":" \r\nCol\u00F3n 289 Cabecera Municipal 45100"},
    {"name":"Apoyo con medicamento","points":[{"lat":20.7367000579834, "lng":-103.402000427246}],"place":"Departamento de Trabajo Social","address":" \r\nAv. Laureles, Esquina Perif\u00E9rico 1151 Unidad FOVISSSTE 45149"},
    {"name":"Apoyo con mejoradores de suelos","points":[{"lat":20.6933994293213, "lng":-103.455001831055}],"place":"Centro de Promoci\u00F3n Econ\u00F3mica Turismo","address":" \r\nAv. Vallarta 6503-F65 Ciudad Granja 45010"},
    {"name":"Apoyo laboral para personas con discapacidad","points":[{"lat":20.7367000579834, "lng":-103.402000427246}],"place":"\u00C1rea de Vinculaci\u00F3n Laboral para la Discapacidad","address":" \r\nAv. Laureles 777 Unidad FOVISSSTE 45149"},
    {"name":"Apoyo con insumos para cirug\u00EDa","points":[{"lat":20.7367000579834, "lng":-103.402000427246}],"place":"Departamento de Trabajo Social","address":" \r\nAv. Laureles, Esquina Perif\u00E9rico 1151 Unidad FOVISSSTE 45149"},
    {"name":"Apoyo para silla de ruedas y andaderas","points":[{"lat":20.7367000579834, "lng":-103.402000427246}],"place":"Departamento de Trabajo Social","address":" \r\nAv. Laureles, Esquina Perif\u00E9rico 1151 Unidad FOVISSSTE 45149"},
    {"name":"Apoyo para zapato ortop\u00E9dico","points":[{"lat":20.7367000579834, "lng":-103.402000427246}],"place":"Departamento de Trabajo Social","address":" \r\nAv. Laureles, Esquina Perif\u00E9rico 1151 Unidad FOVISSSTE 45149"},
    {"name":"Asesor\u00EDa contable y legal a asociaciones vecinales","points":[{"lat":20.7205009460449, "lng":-103.393997192383}],"place":"Direcci\u00F3n General de Desarrollo Social y Humano","address":" \r\nG\u00F3mez Far\u00EDas 122 Linda Vista 45100"},
    {"name":"Asesor\u00EDa a proyectos industriales nuevos y en expansi\u00F3n","points":[{"lat":20.692699432373, "lng":-103.452003479004}],"place":"Dir. de Promoci\u00F3n de Inversi\u00F3n y Comercio Exterior","address":" \r\nAv. Vallarta 6503-F65 Ciudad Granja 45010"},
    {"name":"Asesor\u00EDa jur\u00EDdica \/ Procuradur\u00EDa social y ciudadana","points":[{"lat":20.7253109430942, "lng":-103.386701345444}],"place":"Procuradur\u00EDa Social y Ciudadana","address":" \r\nAv. Juan Pablo II 204 Tepeyac 45150"},
    {"name":"Atenci\u00F3n y derivaci\u00F3n","points":[{"lat":20.7212009429932, "lng":-103.393997192383}],"place":"Instituto Municipal De La Mujer Zapopana","address":" \r\nAndador Mar\u00EDa Cristina Pe\u00F1a 247 La Huerta 45100"},
    {"name":"Asesor\u00EDa legal y administrativa a cooperativas","points":[{"lat":20.692699432373, "lng":-103.452003479004}],"place":"Dir. de Fomento Cooperativo","address":" \r\nAv. Vallarta 6503-F65 Ciudad Granja 45010"},
    {"name":"Asesor\u00EDa psicol\u00F3gica \/ Procuradur\u00EDa social y ciudadana","points":[{"lat":20.7253109430942, "lng":-103.386701345444}],"place":"Procuradur\u00EDa Social y Ciudadana","address":" \r\nAv. Juan Pablo II 204 Tepeyac 45150"},
    {"name":"Asesor\u00EDas y asistencia jur\u00EDdica familiar","points":[{"lat":20.7367000579834, "lng":-103.402000427246}],"place":"Procuradur\u00EDa de la Defensa del Menor y la Familia","address":" \r\nAv. Laureles 777 Unidad FOVISSSTE 45149"},
    {"name":"Asignaci\u00F3n de N\u00FAmero Oficial","points":[{"lat":20.7354655664891, "lng":-103.377163410187}],"place":"Sub-Dir. T\u00E9cnica","address":" \r\n Av. Parres Arias esquina Perif\u00E9rico S\/N Parque Industrial Belenes 45145"},
    {"name":"Atenci\u00F3n a casos de adultos mayores en desamparo","points":[{"lat":20.7234001159668, "lng":-103.411003112793}],"place":"Departamento del Centro Metropolitano del Adulto Mayor","address":" \r\nPrivada Santa Laura S\/N Santa Margarita 45140"},
    {"name":"Atenci\u00F3n a captura de animales silvestres en zona urbana del Municipio","points":[{"lat":20.7224008958212, "lng":-103.383418321609}],"place":"Depto. Zool\u00F3gico Villa Fantas\u00EDa","address":" \r\nJuan Manuel 350 Tepeyac 45100"},
    {"name":"Atenci\u00F3n a la violencia intrafamiliar y maltrato al menor","points":[{"lat":20.7367000579834, "lng":-103.402000427246}],"place":"Procuradur\u00EDa de la Defensa del Menor y la Familia","address":" \r\nAv. Laureles 777 Unidad FOVISSSTE 45149"},
    {"name":"Atenci\u00F3n a las denuncias ambientales","points":[{"lat":20.7510574068368, "lng":-103.370275497437}],"place":"Dir. Protecci\u00F3n al Medio Ambiente","address":" \r\nAv. de los Robles 1566 Jardines del Vergel 45180"},
    {"name":"Atenci\u00F3n a pandillas","points":[{"lat":20.7367000579834, "lng":-103.402000427246}],"place":"Prevenci\u00F3n de Riesgos Psicosociales","address":" \r\nAv. Laureles, Esquina Perif\u00E9rico 1151 Unidad FOVISSSTE 45149"},
    {"name":"Atenci\u00F3n a problemas especiales","points":[{"lat":20.7300672447835, "lng":-103.384845256805}],"place":"Direcci\u00F3n Gral. de Seguridad Publica, Protecci\u00F3n Civil y Bomberos","address":" \r\nBoulevard Panamericano 301 Tepeyac 45100"},
    {"name":"Atenci\u00F3n a usuarios para aclaraci\u00F3n de folios.","points":[{"lat":20.7516994476318, "lng":-103.361999511719}],"place":"Dir. Estacionometros","address":" \r\nEmiliano Zapata 29 Cabecera Municipal 45100"},
    {"name":"Atenci\u00F3n de emergencias arboles ca\u00EDdos (programa de contingencias)","points":[{"lat":20.7302879977735, "lng":-103.403395414352}],"place":"Dir. Parques y Jardines","address":" \r\nAv. Tesistan 801 Sta. Margarita 45100"},
    {"name":"Atenci\u00F3n de parto","points":[{"lat":17.1403007507324, "lng":-96.7567977905273}],"place":"Hospital General de Zapopan","address":" \r\nCol\u00F3n 289 Cabecera Municipal 45100"},
    {"name":"Atenci\u00F3n de preliberados","points":[{"lat":20.7217586709599, "lng":-103.389780521393}],"place":"Dir. Jur\u00EDdica Contencioso ","address":" \r\nAv. Hidalgo , Planta Alta, Palacio Mpl. 151 Cabecera Municipal 45100"},
    {"name":"Atenci\u00F3n personal a familiares de detenidos","points":[{"lat":20.7274081493859, "lng":-103.386079072952}],"place":"Coord. Gral. de Juzgados Municipales ","address":" \r\nAv. Juan Pablo II 252 Tepeyac 45150"},
    {"name":"Atenci\u00F3n psicol\u00F3gica a v\u00EDctimas del delito","points":[{"lat":20.7274081493859, "lng":-103.386079072952}],"place":"Coord. Gral. de Juzgados Municipales ","address":" \r\nAv. Juan Pablo II 252 Tepeyac 45150"},
    {"name":"Atenci\u00F3n psicol\u00F3gica ambulatoria","points":[{"lat":17.1403007507324, "lng":-96.7567977905273}],"place":"Hospital General de Zapopan","address":" \r\nCol\u00F3n 289 Cabecera Municipal 45100"},
    {"name":"Atenci\u00F3n psicol\u00F3gica ambulatoria (en crisis)","points":[{"lat":17.1403007507324, "lng":-96.7567977905273}],"place":"Hospital General de Zapopan","address":" \r\nCol\u00F3n 289 Cabecera Municipal 45100"},
    {"name":"Atenci\u00F3n psicol\u00F3gica y de trabajo social a detenidos.","points":[{"lat":20.7274081493859, "lng":-103.386079072952}],"place":"Coord. Gral. de Juzgados Municipales ","address":" \r\nAv. Juan Pablo II 252 Tepeyac 45150"},
    {"name":"Audiometr\u00EDa y timpanometr\u00EDa","points":[{"lat":20.7367000579834, "lng":-103.402000427246}],"place":"Departamento de Atenci\u00F3n a Personas con Discapacidad","address":" \r\nAv. Laureles 777 Unidad FOVISSSTE 45149"},
    {"name":"Autorizaci\u00f3n de libros de actas y recibos para las asociaciones vecinales","points":[{"lat":20.7205009460449, "lng":-103.393997192383}],"place":"Direcci\u00F3n General de Desarrollo Social y Humano","address":" \r\nG\u00F3mez Far\u00EDas 122 Linda Vista 45100"},
    {"name":"Baja de licencia de giro comercial","points":[{"lat":20.7356662438817, "lng":-103.377141952515}],"place":"Oficial\u00EDa Mayor Padr\u00F3n y Licencias","address":" \r\n Av. Parres Arias esquina Perif\u00E9rico s\/n Parque Industrial Belenes 45140"},
    {"name":"Baja por presidencia (due\u00F1o del local)","points":[{"lat":20.7356662438817, "lng":-103.377141952515}],"place":"Oficial\u00EDa Mayor Padr\u00F3n y Licencias","address":" \r\n Av. Parres Arias esquina Perif\u00E9rico s\/n Parque Industrial Belenes 45140"},
    {"name":"Banco de Informaci\u00F3n de Normas de Observancia General de Zapopan, (BINOGZA)","points":[{"lat":20.7296009063721, "lng":-103.38200378418}],"place":"Dir. de Archivo Municipal ","address":" \r\nDr. Luis de Farah 1080 Paraisos 45079"},
    {"name":"Programa de Limpieza del Centro Hist\u00F3rico.","points":[{"lat":20.725700378418, "lng":-103.379997253418}],"place":"Dir. Mantenimiento Urbano","address":" \r\nSta. Luc\u00EDa 373 Tepeyac 45100"},
    {"name":"Becas tipo padrino","points":[{"lat":20.7367000579834, "lng":-103.402000427246}],"place":"Departamento de Protecci\u00F3n de Ni\u00F1os, Ni\u00F1as y Adolescentes","address":" \r\nAv. Laureles, Esquina Perif\u00E9rico 1151 Unidad FOVISSSTE 45149"},
    {"name":"Biometr\u00EDa hem\u00E1tica en Cruz Verde","points":[{"lat":17.1403007507324, "lng":-96.7567977905273}],"place":"Hospital General de Zapopan","address":" \r\nCol\u00F3n 289 Cabecera Municipal 45100"},
    {"name":"Bolsa de trabajo (vacantes ofertadas por empresas externas)","points":[{"lat":20.7205143525417, "lng":-103.391003608704}],"place":"Dir. Recursos Humanos","address":" \r\nUnidad Bas\u00EDlica, 3er. Nivel s\/n Cabecera Municipal 45100"},
    {"name":"Programa de combate al graffiti","points":[{"lat":20.725700378418, "lng":-103.379997253418}],"place":"Dir. Mantenimiento Urbano","address":" \r\nSta. Luc\u00EDa 373 Tepeyac 45100"},
    {"name":"Brigadas culturales","points":[{"lat":20.7217998504639, "lng":-103.393997192383}],"place":"Sub-Dir. de Formaci\u00F3n Cultural","address":" \r\nVicente Guerrero 233 La Huerta 45160"},
    {"name":"B\u00FAsqueda de archivo","points":[{"lat":20.7354655664891, "lng":-103.377163410187}],"place":"Sub-Dir. T\u00E9cnica","address":" \r\n Av. Parres Arias esquina Perif\u00E9rico S\/N Parque Industrial Belenes 45145"},
    {"name":"B\u00FAsqueda de inmuebles aptos para la instalaci\u00F3n de oficinas, empresa o desarrollo industrial. Informaci\u00F3n estad\u00EDstica sobre determinada zona o industria.","points":[{"lat":20.692699432373, "lng":-103.452003479004}],"place":"Dir. de Promoci\u00F3n de Inversi\u00F3n y Comercio Exterior","address":" \r\nAv. Vallarta 6503-F65 Ciudad Granja 45010"},
    {"name":"Calificaci\u00F3n de actas de infracci\u00F3n sin detenido","points":[{"lat":20.7205143525417, "lng":-103.391003608704}],"place":"Depto. Coord. de Jueces Calificadores ","address":" \r\nUnidad Bas\u00EDlica, Planta Baja, Oficina 7 s\/n Cabecera Municipal 45100"},
    {"name":"Calificaci\u00F3n de infracciones administrativas del reglamento de polic\u00EDa y buen gobierno","points":[{"lat":20.7274081493859, "lng":-103.386079072952}],"place":"Coord. Gral. de Juzgados Municipales ","address":" \r\nAv. Juan Pablo II 252 Tepeyac 45150"},
    {"name":"Cambio de concesionario de un local en mercado municipal. ","points":[{"lat":20.728311243626, "lng":-103.403250575066}],"place":"Dir. Mercados","address":" \r\nFray Francisco de Lorenzo Esq. Fray Toribio de Motolinia 100 Cabecera Municipal 45100"},
    {"name":"Cambio y\/o ampliaci\u00F3n de giro en un local de mercado municipal","points":[{"lat":20.728311243626, "lng":-103.403250575066}],"place":"Dir. Mercados","address":" \r\nFray Francisco de Lorenzo Esq. Fray Toribio de Motolinia 100 Cabecera Municipal 45100"},
    {"name":"Cambio de giro o anuncio de giro comercial","points":[{"lat":20.7357264470476, "lng":-103.377056121826}],"place":"Dir. Licencias","address":" \r\n Av. Parres Arias esquina Perif\u00E9rico S\/N Parque Industrial Belenes 45145"},
    {"name":"Cambio de Director Responsable en Obra de Edificaci\u00F3n","points":[{"lat":20.7354655664891, "lng":-103.377163410187}],"place":"Sub-Dir. T\u00E9cnica","address":" \r\n Av. Parres Arias esquina Perif\u00E9rico S\/N Parque Industrial Belenes 45145"},
    {"name":"Cambio de proyecto de edificaci\u00F3n","points":[{"lat":20.7354655664891, "lng":-103.377163410187}],"place":"Sub-Dir. T\u00E9cnica","address":" \r\n Av. Parres Arias esquina Perif\u00E9rico S\/N Parque Industrial Belenes 45145"},
    {"name":"Campa\u00F1a ","points":[{"lat":20.7367000579834, "lng":-103.402000427246}],"place":"Departamento de Atenci\u00F3n a Personas con Discapacidad","address":" \r\nAv. Laureles 777 Unidad FOVISSSTE 45149"},
    {"name":"Apoyo de lentes","points":[{"lat":20.7367000579834, "lng":-103.402000427246}],"place":"Departamento de Atenci\u00F3n a Personas con Discapacidad","address":" \r\nAv. Laureles 777 Unidad FOVISSSTE 45149"},
    {"name":"Campa\u00F1a de esterilizaci\u00F3n en perros y gatos.","points":[{"lat":20.7292003631592, "lng":-103.391998291016}],"place":"Depto. De Sanidad Animal","address":" \r\nAv. Laureles 380 Tepeyac 45100"},
    {"name":"Campa\u00F1a de vacunaci\u00F3n antirr\u00E1bica.","points":[{"lat":20.7292003631592, "lng":-103.391998291016}],"place":"Depto. De Sanidad Animal","address":" \r\nAv. Laureles 380 Tepeyac 45100"},
    {"name":"Campa\u00F1as zoosanitarias contra tuberculosis y brucelosis","points":[{"lat":20.7509002685547, "lng":-103.38500213623}],"place":"Dir. de Desarrollo Agropecuario","address":" \r\nPaseo de los Robles 1566 Jardines el Vergel 45700"},
    {"name":"Cancelaci\u00F3n de cuenta predial por duplicidad.","points":[{"lat":20.7370308430945, "lng":-103.376970291138}],"place":"Dir. de Catastro","address":" \r\nAv. Parres Arias esquina Perif\u00E9rico Norte S\/N Parque Industrial Belenes 45140"},
    {"name":"Capacitaci\u00F3n ambiental","points":[{"lat":20.7510574068368, "lng":-103.370275497437}],"place":"Dir. Protecci\u00F3n al Medio Ambiente","address":" \r\nAv. de los Robles 1566 Jardines del Vergel 45180"},
    {"name":"Capacitaci\u00F3n para Cooperativas","points":[{"lat":20.692699432373, "lng":-103.452003479004}],"place":"Dir. de Fomento Cooperativo","address":" \r\nAv. Vallarta 6503-F65 Ciudad Granja 45010"},
    {"name":"Capacitaci\u00F3n y asesor\u00EDa a clubes de adultos mayores","points":[{"lat":20.7234001159668, "lng":-103.411003112793}],"place":"Departamento del Centro Metropolitano del Adulto Mayor","address":" \r\nPrivada Santa Laura S\/N Santa Margarita 45140"},
    {"name":"Carta de introductor","points":[{"lat":20.7474002838135, "lng":-103.38200378418}],"place":"Dir. Rastro Municipal","address":" \r\nAv. del Rastro s\/n Bosques de San Isidro 45140"},
    {"name":"Oficio para solicitar descuento a la direcci\u00F3n de mercado","points":[{"lat":20.7367000579834, "lng":-103.402000427246}],"place":"Departamento de Trabajo Social","address":" \r\nAv. Laureles, Esquina Perif\u00E9rico 1151 Unidad FOVISSSTE 45149"},
    {"name":"Cartilla del Servicio Militar Nacional","points":[{"lat":20.6312999725342, "lng":-103.416999816895}],"place":"Depto. de Junta Municipal de Reclutamiento 2","address":" \r\nL\u00F3pez Mateos Sur 5150 Las Aguilas 45080"},
    {"name":"Sala Multisensorial","points":[{"lat":20.7367000579834, "lng":-103.402000427246}],"place":"Departamento de Atenci\u00F3n a Personas con Discapacidad","address":" \r\nAv. Laureles 777 Unidad FOVISSSTE 45149"},
    {"name":"Certificaci\u00F3n de Colindantes","points":[{"lat":20.7210006713867, "lng":-103.391998291016}],"place":"Coordinaci\u00F3n General de Regularizaci\u00F3n de Asentamientos","address":" \r\nAv. Hidalgo , Planta Alta, Palacio Mpl. 151 Cabecera Municipal 45100"},
    {"name":"Certificaci\u00F3n de origen","points":[{"lat":20.7210006713867, "lng":-103.391998291016}],"place":"Dir. de Registro Civil","address":" \r\nUnidad Administrativa Bas\u00EDlica, 1er. Piso s\/n Cabecera Municipal 45100"},
    {"name":"Certificado de inscripci\u00F3n de propiedad","points":[{"lat":20.7370308430945, "lng":-103.376970291138}],"place":"Dir. de Catastro","address":" \r\nAv. Parres Arias esquina Perif\u00E9rico Norte S\/N Parque Industrial Belenes 45140"},
    {"name":"Certificado de no inscripci\u00F3n ","points":[{"lat":20.7370308430945, "lng":-103.376970291138}],"place":"Dir. de Catastro","address":" \r\nAv. Parres Arias esquina Perif\u00E9rico Norte S\/N Parque Industrial Belenes 45140"},
    {"name":"Certificado de no propiedad","points":[{"lat":20.7370308430945, "lng":-103.376970291138}],"place":"Dir. de Catastro","address":" \r\nAv. Parres Arias esquina Perif\u00E9rico Norte S\/N Parque Industrial Belenes 45140"},
    {"name":"Certificado de \u00FAnico bien","points":[{"lat":20.7370308430945, "lng":-103.376970291138}],"place":"Dir. de Catastro","address":" \r\nAv. Parres Arias esquina Perif\u00E9rico Norte S\/N Parque Industrial Belenes 45140"},
    {"name":"Certificado m\u00E9dico","points":[{"lat":17.1403007507324, "lng":-96.7567977905273}],"place":"Hospital General de Zapopan","address":" \r\nCol\u00F3n 289 Cabecera Municipal 45100"},
    {"name":"Certificado o Constancia de Habitabilidad","points":[{"lat":20.7354655664891, "lng":-103.377163410187}],"place":"Sub-Dir. T\u00E9cnica","address":" \r\n Av. Parres Arias esquina Perif\u00E9rico S\/N Parque Industrial Belenes 45145"},
    {"name":"Certificados de salud (trabajo, escolar) (prenupciales, divorcio)","points":[{"lat":17.1403007507324, "lng":-96.7567977905273}],"place":"Hospital General de Zapopan","address":" \r\nCol\u00F3n 289 Cabecera Municipal 45100"},
    {"name":"Cirug\u00EDa especial","points":[{"lat":20.7292003631592, "lng":-103.391998291016}],"place":"Depto. De Sanidad Animal","address":" \r\nAv. Laureles 380 Tepeyac 45100"},
    {"name":"Cirug\u00EDa general en Cruz Verde","points":[{"lat":17.1403007507324, "lng":-96.7567977905273}],"place":"Hospital General de Zapopan","address":" \r\nCol\u00F3n 289 Cabecera Municipal 45100"},
    {"name":"Cirug\u00EDa reconstructiva","points":[{"lat":17.1403007507324, "lng":-96.7567977905273}],"place":"Hospital General de Zapopan","address":" \r\nCol\u00F3n 289 Cabecera Municipal 45100"},
    {"name":"Clubes de adultos mayores (clubs)","points":[{"lat":20.7234001159668, "lng":-103.411003112793}],"place":"Departamento del Centro Metropolitano del Adulto Mayor","address":" \r\nPrivada Santa Laura S\/N Santa Margarita 45140"},
    {"name":"Colonias Por T\u00ED.","points":[{"lat":20.7212009429932, "lng":-103.393997192383}],"place":"Dir. De Comunidad Digna","address":" \r\nAv. Laureles 80 El Vig\u00EDa 45140"},
    {"name":"Solicitud de Peritaje Forestal","points":[{"lat":20.7302879977735, "lng":-103.403395414352}],"place":"Dir. Parques y Jardines","address":" \r\nAv. Tesistan 801 Sta. Margarita 45100"},
    {"name":"Comedor asistencial para adultos mayores en desamparo","points":[{"lat":20.7234001159668, "lng":-103.411003112793}],"place":"Departamento del Centro Metropolitano del Adulto Mayor","address":" \r\nPrivada Santa Laura S\/N Santa Margarita 45140"},
    {"name":"Comparecencia ante el Secretario del Ayuntamiento con fines de acreditar ingresos","points":[{"lat":20.7219009399414, "lng":-103.389999389648}],"place":"Secretar\u00EDa del Ayuntamiento ","address":" \r\nAv. Hidalgo , Planta Alta, Palacio Mpl. 151 Cabecera Municipal 45100"},
    {"name":"Comparecencia ante el Secretario con fines de acreditar ingresos y dependencia econ\u00F3mica","points":[{"lat":20.7219009399414, "lng":-103.389999389648}],"place":"Secretar\u00EDa del Ayuntamiento ","address":" \r\nAv. Hidalgo , Planta Alta, Palacio Mpl. 151 Cabecera Municipal 45100"},
    {"name":"Comparecencia ante el Secretario con fines de identificaci\u00F3n","points":[{"lat":20.7219009399414, "lng":-103.389999389648}],"place":"Secretar\u00EDa del Ayuntamiento ","address":" \r\nAv. Hidalgo , Planta Alta, Palacio Mpl. 151 Cabecera Municipal 45100"},
    {"name":"Comprobante de domicilio","points":[{"lat":20.7219009399414, "lng":-103.389999389648}],"place":"Secretar\u00EDa del Ayuntamiento ","address":" \r\nAv. Hidalgo , Planta Alta, Palacio Mpl. 151 Cabecera Municipal 45100"},
    {"name":"Comprobante de domicilio de persona moral","points":[{"lat":20.7219009399414, "lng":-103.389999389648}],"place":"Secretar\u00EDa del Ayuntamiento ","address":" \r\nAv. Hidalgo , Planta Alta, Palacio Mpl. 151 Cabecera Municipal 45100"},
    {"name":"Computaci\u00F3n b\u00E1sica","points":[{"lat":20.7367000579834, "lng":-103.402000427246}],"place":"Coordinaci\u00F3n de Centros de Aprendizaje","address":" \r\nAv. Laureles, Esquina Perif\u00E9rico 1151 Unidad FOVISSSTE 45149"},
    {"name":"Conformaci\u00F3n Cooperativas","points":[{"lat":20.692699432373, "lng":-103.452003479004}],"place":"Dir. de Fomento Cooperativo","address":" \r\nAv. Vallarta 6503-F65 Ciudad Granja 45010"},
    {"name":"Constancia de asentamiento y notorio arraigo","points":[{"lat":20.7219009399414, "lng":-103.389999389648}],"place":"Secretar\u00EDa del Ayuntamiento ","address":" \r\nAv. Hidalgo , Planta Alta, Palacio Mpl. 151 Cabecera Municipal 45100"},
    {"name":"Constancia de curso prematrimonial civil","points":[{"lat":20.7367000579834, "lng":-103.402000427246}],"place":"Coordinaci\u00F3n de Atenci\u00F3n Familiar","address":" \r\nCalle 1 330 Unidad FOVISSSTE 45149"},
    {"name":"Constancia de dependencia econ\u00F3mica","points":[{"lat":20.7219009399414, "lng":-103.389999389648}],"place":"Secretar\u00EDa del Ayuntamiento ","address":" \r\nAv. Hidalgo , Planta Alta, Palacio Mpl. 151 Cabecera Municipal 45100"},
    {"name":"Constancia de modo honesto de vida (para solicitar permiso de portaci\u00F3n y uso de arma de fuego)","points":[{"lat":20.7219009399414, "lng":-103.389999389648}],"place":"Secretar\u00EDa del Ayuntamiento ","address":" \r\nAv. Hidalgo , Planta Alta, Palacio Mpl. 151 Cabecera Municipal 45100"},
    {"name":"Constancia de modo honesto de vida y residencia en general o con antigüedad","points":[{"lat":20.7219009399414, "lng":-103.389999389648}],"place":"Secretar\u00EDa del Ayuntamiento ","address":" \r\nAv. Hidalgo , Planta Alta, Palacio Mpl. 151 Cabecera Municipal 45100"},
    {"name":"Constancia de residencia","points":[{"lat":20.7219009399414, "lng":-103.389999389648}],"place":"Secretar\u00EDa del Ayuntamiento ","address":" \r\nAv. Hidalgo , Planta Alta, Palacio Mpl. 151 Cabecera Municipal 45100"},
    {"name":"Constancia de salud veterinaria","points":[{"lat":20.7292003631592, "lng":-103.391998291016}],"place":"Depto. De Sanidad Animal","address":" \r\nAv. Laureles 380 Tepeyac 45100"},
    {"name":"Constancia de supervivencia","points":[{"lat":20.7219009399414, "lng":-103.389999389648}],"place":"Secretar\u00EDa del Ayuntamiento ","address":" \r\nAv. Hidalgo , Planta Alta, Palacio Mpl. 151 Cabecera Municipal 45100"},
    {"name":"Constancia de trabajo en tianguis","points":[{"lat":20.728311243626, "lng":-103.403250575066}],"place":"Dir. Mercados","address":" \r\nFray Francisco de Lorenzo Esq. Fray Toribio de Motolinia 100 Cabecera Municipal 45100"},
    {"name":"Constituci\u00F3n de consejos de colonia","points":[{"lat":20.7370709781792, "lng":-103.377131223679}],"place":"Dir. De Coplademun","address":" \r\nAv. Parres Arias esquina Perif\u00E9rico s\/n Parque Industrial Belenes 45140"},
    {"name":"Construcci\u00F3n o rehabilitaci\u00F3n de banquetas","points":[{"lat":20.7354655664891, "lng":-103.377163410187}],"place":"Sub-Dir. T\u00E9cnica","address":" \r\n Av. Parres Arias esquina Perif\u00E9rico S\/N Parque Industrial Belenes 45145"},
    {"name":"Consulta al acervo documental \/ certificaci\u00F3n de documentos","points":[{"lat":20.7296009063721, "lng":-103.38200378418}],"place":"Dir. de Archivo Municipal ","address":" \r\nDr. Luis de Farah 1080 Paraisos 45079"},
    {"name":"Consulta al acervo documental \/ Licencias de construcci\u00F3n","points":[{"lat":20.7296009063721, "lng":-103.38200378418}],"place":"Dir. de Archivo Municipal ","address":" \r\nDr. Luis de Farah 1080 Paraisos 45079"},
    {"name":"Consulta al acervo documental \/ registro civil","points":[{"lat":20.7296009063721, "lng":-103.38200378418}],"place":"Dir. de Archivo Municipal ","address":" \r\nDr. Luis de Farah 1080 Paraisos 45079"},
    {"name":"Consulta de biblioteca","points":[{"lat":20.7296009063721, "lng":-103.38200378418}],"place":"Dir. de Archivo Municipal ","address":" \r\nDr. Luis de Farah 1080 Paraisos 45079"},
    {"name":"Consulta de la normatividad que aplica en el municipio","points":[{"lat":20.7296009063721, "lng":-103.38200378418}],"place":"Dir. de Archivo Municipal ","address":" \r\nDr. Luis de Farah 1080 Paraisos 45079"},
    {"name":"Consulta de M\u00E9dicina General","points":[{"lat":17.1403007507324, "lng":-96.7567977905273}],"place":"Hospital General de Zapopan","address":" \r\nCol\u00F3n 289 Cabecera Municipal 45100"},
    {"name":"Consulta de odontolog\u00EDa","points":[{"lat":17.1403007507324, "lng":-96.7567977905273}],"place":"Hospital General de Zapopan","address":" \r\nCol\u00F3n 289 Cabecera Municipal 45100"},
    {"name":"Consulta de oftalmolog\u00EDa","points":[{"lat":20.7367000579834, "lng":-103.402000427246}],"place":"Departamento de Atenci\u00F3n a Personas con Discapacidad","address":" \r\nAv. Laureles 777 Unidad FOVISSSTE 45149"},
    {"name":"Consulta de planoteca","points":[{"lat":20.7296009063721, "lng":-103.38200378418}],"place":"Dir. de Archivo Municipal ","address":" \r\nDr. Luis de Farah 1080 Paraisos 45079"},
    {"name":"Consulta general externa en Cruz Verde","points":[{"lat":17.1403007507324, "lng":-96.7567977905273}],"place":"Hospital General de Zapopan","address":" \r\nCol\u00F3n 289 Cabecera Municipal 45100"},
    {"name":"Consulta m\u00E9dica (CRI)","points":[{"lat":20.7367000579834, "lng":-103.402000427246}],"place":"Departamento de Atenci\u00F3n a Personas con Discapacidad","address":" \r\nAv. Laureles 777 Unidad FOVISSSTE 45149"},
    {"name":"Consulta m\u00E9dica de especialidad","points":[{"lat":17.1403007507324, "lng":-96.7567977905273}],"place":"Hospital General de Zapopan","address":" \r\nCol\u00F3n 289 Cabecera Municipal 45100"},
    {"name":"Consulta m\u00E9dica de urgencias","points":[{"lat":17.1403007507324, "lng":-96.7567977905273}],"place":"Hospital General de Zapopan","address":" \r\nCol\u00F3n 289 Cabecera Municipal 45100"},
    {"name":"Consulta para rehabilitaci\u00F3n y terapia f\u00EDsica y estimulaci\u00F3n temprana","points":[{"lat":20.7367000579834, "lng":-103.402000427246}],"place":"Departamento de Atenci\u00F3n a Personas con Discapacidad","address":" \r\nAv. Laureles 777 Unidad FOVISSSTE 45149"},
    {"name":"Consulta pedi\u00E1trica de urgencia","points":[{"lat":17.1403007507324, "lng":-96.7567977905273}],"place":"Hospital General de Zapopan","address":" \r\nCol\u00F3n 289 Cabecera Municipal 45100"},
    {"name":"Consulta veterinaria","points":[{"lat":20.7292003631592, "lng":-103.391998291016}],"place":"Depto. De Sanidad Animal","address":" \r\nAv. Laureles 380 Tepeyac 45100"},
    {"name":"Consultas: m\u00E9dico general, odontolog\u00EDa, podolog\u00EDa, optometrista, homeopat\u00EDa y enfermer\u00EDa","points":[{"lat":20.7367000579834, "lng":-103.402000427246}],"place":"\u00C1rea M\u00E9dica","address":" \r\nAv. Laureles, Esquina Perif\u00E9rico 1151 Unidad FOVISSSTE 45149"},
    {"name":"Contrato de arrendamiento","points":[{"lat":20.7295655322454, "lng":-103.39076757431}],"place":"Dir. Jur\u00EDdica Consultiva ","address":" \r\nAv. Juan Pablo II 80 El Vigia 45100"},
    {"name":"Contrato de comodato","points":[{"lat":20.7295655322454, "lng":-103.39076757431}],"place":"Dir. Jur\u00EDdica Consultiva ","address":" \r\nAv. Juan Pablo II 80 El Vigia 45100"},
    {"name":"Contrato de donaci\u00F3n de bienes inmuebles","points":[{"lat":20.7295655322454, "lng":-103.39076757431}],"place":"Dir. Jur\u00EDdica Consultiva ","address":" \r\nAv. Juan Pablo II 80 El Vigia 45100"},
    {"name":"Contrato de prestaci\u00F3n de servicios","points":[{"lat":20.7295655322454, "lng":-103.39076757431}],"place":"Dir. Jur\u00EDdica Consultiva ","address":" \r\nAv. Juan Pablo II 80 El Vigia 45100"},
    {"name":"Convenio para utilizaci\u00F3n de predios en \u00E1reas de destino y similares","points":[{"lat":20.7295655322454, "lng":-103.39076757431}],"place":"Dir. Jur\u00EDdica Consultiva ","address":" \r\nAv. Juan Pablo II 80 El Vigia 45100"},
    {"name":"Copias de microfilm","points":[{"lat":20.7370308430945, "lng":-103.376970291138}],"place":"Dir. de Catastro","address":" \r\nAv. Parres Arias esquina Perif\u00E9rico Norte S\/N Parque Industrial Belenes 45140"},
    {"name":"Credenciales plan venerable","points":[{"lat":20.7234001159668, "lng":-103.411003112793}],"place":"Departamento del Centro Metropolitano del Adulto Mayor","address":" \r\nPrivada Santa Laura S\/N Santa Margarita 45140"},
    {"name":"Cremaci\u00F3n","points":[{"lat":20.7473351765714, "lng":-103.388793468475}],"place":"Dir. Cementerios","address":" \r\nIndustria de la Construcci\u00F3n 124 Zapopan Industrial Norte 45130"},
    {"name":"Curso de capacitaci\u00F3n externa en materia de seguridad p\u00FAblica","points":[{"lat":20.7300672447835, "lng":-103.384845256805}],"place":"Direcci\u00F3n Gral. de Seguridad Publica, Protecci\u00F3n Civil y Bomberos","address":" \r\nBoulevard Panamericano 301 Tepeyac 45100"},
    {"name":"Diplomado de habilidades b\u00E1sicas en inform\u00E1tica (HBI) diplomado","points":[{"lat":20.7367000579834, "lng":-103.402000427246}],"place":"Coordinaci\u00F3n de Centros de Aprendizaje","address":" \r\nAv. Laureles, Esquina Perif\u00E9rico 1151 Unidad FOVISSSTE 45149"},
    {"name":"Curso para futuros padres adoptivos","points":[{"lat":20.7367000579834, "lng":-103.402000427246}],"place":"Consejo Municipal de la Familia","address":" \r\nAv. Laureles 777 Unidad FOVISSSTE 45149"},
    {"name":"Cursos de capacitaci\u00F3n y producci\u00F3n","points":[{"lat":20.7367000579834, "lng":-103.402000427246}],"place":"Promoci\u00F3n y Desarrollo Comunitario","address":" \r\nAv. Laureles, Esquina Perif\u00E9rico 1151 Unidad FOVISSSTE 45149"},
    {"name":"Cursos de computaci\u00F3n para ni\u00F1os","points":[{"lat":20.7367000579834, "lng":-103.402000427246}],"place":"Coordinaci\u00F3n de Centros de Aprendizaje","address":" \r\nAv. Laureles, Esquina Perif\u00E9rico 1151 Unidad FOVISSSTE 45149"},
    {"name":"Cursos de verano enfocados al cuidado del medio ambiente.","points":[{"lat":20.7510574068368, "lng":-103.370275497437}],"place":"Dir. Protecci\u00F3n al Medio Ambiente","address":" \r\nAv. de los Robles 1566 Jardines del Vergel 45180"},
    {"name":"Cursos en la escuela de m\u00FAsica","points":[{"lat":20.7217998504639, "lng":-103.393997192383}],"place":"Sub-Dir. de Formaci\u00F3n Cultural","address":" \r\nVicente Guerrero 233 La Huerta 45160"},
    {"name":"Da\u00F1os a patrimonio municipal","points":[{"lat":20.7217586709599, "lng":-103.389780521393}],"place":"Dir. Jur\u00EDdica Contencioso ","address":" \r\nAv. Hidalgo , Planta Alta, Palacio Mpl. 151 Cabecera Municipal 45100"},
    {"name":"Aprovechamiento de Infraestructura B\u00E1sica para Predios Menores de 10,000 m2","points":[{"lat":20.7354655664891, "lng":-103.377163410187}],"place":"Sub-Dir. T\u00E9cnica","address":" \r\n Av. Parres Arias esquina Perif\u00E9rico S\/N Parque Industrial Belenes 45145"},
    {"name":"Dental","points":[{"lat":17.1403007507324, "lng":-96.7567977905273}],"place":"Hospital General de Zapopan","address":" \r\nCol\u00F3n 289 Cabecera Municipal 45100"},
    {"name":"Denuncias ciudadanas de seguridad p\u00FAblica Asuntos Internos","points":[{"lat":20.7294006347656, "lng":-103.389999389648}],"place":"Dir. de Asuntos Internos","address":" \r\nAv. Laureles 80 El Vig\u00EDa 45140"},
    {"name":"Derecho de uso a temporalidad por el termino de 10 a\u00F1os.","points":[{"lat":20.7473351765714, "lng":-103.388793468475}],"place":"Dir. Cementerios","address":" \r\nIndustria de la Construcci\u00F3n 124 Zapopan Industrial Norte 45130"},
    {"name":"Desazolve en bocas de tormenta","points":[{"lat":20.6585006713867, "lng":-103.446998596191}],"place":"Dir. Agua y Alcantarillado","address":" \r\nAv. Guadalupe 6899 Chapalita Inn 45010"},
    {"name":"Desparasitaci\u00F3n veterinaria","points":[{"lat":20.7292003631592, "lng":-103.391998291016}],"place":"Depto. De Sanidad Animal","address":" \r\nAv. Laureles 380 Tepeyac 45100"},
    {"name":"Despensa alimenticia emergente","points":[{"lat":20.7367000579834, "lng":-103.402000427246}],"place":"Departamento de Trabajo Social","address":" \r\nAv. Laureles, Esquina Perif\u00E9rico 1151 Unidad FOVISSSTE 45149"},
    {"name":"Devoluci\u00F3n de animal agresor sospechoso de rabia.","points":[{"lat":20.7292003631592, "lng":-103.391998291016}],"place":"Depto. De Sanidad Animal","address":" \r\nAv. Laureles 380 Tepeyac 45100"},
    {"name":"Devoluci\u00F3n de bienes retenidos","points":[{"lat":20.7274081493859, "lng":-103.386079072952}],"place":"Coord. Gral. de Juzgados Municipales ","address":" \r\nAv. Juan Pablo II 252 Tepeyac 45150"},
    {"name":"Devoluci\u00F3n de animal callejero","points":[{"lat":20.7292003631592, "lng":-103.391998291016}],"place":"Depto. De Sanidad Animal","address":" \r\nAv. Laureles 380 Tepeyac 45100"},
    {"name":"Dict\u00E1men de antigüedad de finca","points":[{"lat":20.7354655664891, "lng":-103.377163410187}],"place":"Sub-Dir. T\u00E9cnica","address":" \r\n Av. Parres Arias esquina Perif\u00E9rico S\/N Parque Industrial Belenes 45145"},
    {"name":"Dictamen de Trazo, Usos y Destinos Espec\u00EDficos","points":[{"lat":20.7354655664891, "lng":-103.377163410187}],"place":"Sub-Dir. T\u00E9cnica","address":" \r\n Av. Parres Arias esquina Perif\u00E9rico S\/N Parque Industrial Belenes 45145"},
    {"name":"Dictaminaci\u00F3n para tr\u00E1mite de giro nuevo.","points":[{"lat":20.7510574068368, "lng":-103.370275497437}],"place":"Dir. Protecci\u00F3n al Medio Ambiente","address":" \r\nAv. de los Robles 1566 Jardines del Vergel 45180"},
    {"name":"Difusores infantiles de los derechos de los ni\u00F1os, ni\u00F1as y adolescentes","points":[{"lat":20.7367000579834, "lng":-103.402000427246}],"place":"Departamento de Protecci\u00F3n de Ni\u00F1os, Ni\u00F1as y Adolescentes","address":" \r\nAv. Laureles, Esquina Perif\u00E9rico 1151 Unidad FOVISSSTE 45149"},
    {"name":"Digitalizaci\u00F3n de documentos hist\u00F3ricos del Municipio y de las Actas de Cabildo y sus anexos","points":[{"lat":20.7296009063721, "lng":-103.38200378418}],"place":"Dir. de Archivo Municipal ","address":" \r\nDr. Luis de Farah 1080 Paraisos 45079"},
    {"name":"Dispensa matrimonial","points":[{"lat":20.7367000579834, "lng":-103.402000427246}],"place":"Consejo Municipal de la Familia","address":" \r\nAv. Laureles 777 Unidad FOVISSSTE 45149"},
    {"name":"Distribuci\u00F3n de agua potable en cami\u00F3n tipo cisterna","points":[{"lat":20.6585006713867, "lng":-103.446998596191}],"place":"Dir. Agua y Alcantarillado","address":" \r\nAv. Guadalupe 6899 Chapalita Inn 45010"},
    {"name":"Distribuci\u00F3n de desayunos escolares en modalidad caliente","points":[{"lat":20.7367000579834, "lng":-103.402000427246}],"place":"Coordinaci\u00F3n de Asistencia Alimentaria","address":" \r\nAv. Laureles 777 Unidad FOVISSSTE 45149"},
    {"name":"Distribuci\u00F3n de desayunos escolares modalidad fr\u00EDa","points":[{"lat":20.7367000579834, "lng":-103.402000427246}],"place":"Coordinaci\u00F3n de Asistencia Alimentaria","address":" \r\nAv. Laureles 777 Unidad FOVISSSTE 45149"},
    {"name":"Divorcio administrativo","points":[{"lat":20.7210006713867, "lng":-103.391998291016}],"place":"Dir. de Registro Civil","address":" \r\nUnidad Administrativa Bas\u00EDlica, 1er. Piso s\/n Cabecera Municipal 45100"},
    {"name":"Documento de informaci\u00F3n de linderos y restricciones","points":[{"lat":20.7354655664891, "lng":-103.377163410187}],"place":"Sub-Dir. T\u00E9cnica","address":" \r\n Av. Parres Arias esquina Perif\u00E9rico S\/N Parque Industrial Belenes 45145"},
    {"name":"Donaci\u00F3n de plantas y arbolado para el mantenimiento y rehabilitaci\u00F3n de las \u00E1reas verdes","points":[{"lat":20.7302879977735, "lng":-103.403395414352}],"place":"Dir. Parques y Jardines","address":" \r\nAv. Tesistan 801 Sta. Margarita 45100"},
    {"name":"Elaboraci\u00F3n de convenios para utilizar predios en \u00E1reas de destino","points":[{"lat":20.7356662438817, "lng":-103.377141952515}],"place":"Oficial\u00EDa Mayor Padr\u00F3n y Licencias","address":" \r\n Av. Parres Arias esquina Perif\u00E9rico s\/n Parque Industrial Belenes 45140"},
    {"name":"Emergencias en materia de protecci\u00F3n civil y bomberos","points":[{"lat":20.7300672447835, "lng":-103.384845256805}],"place":"Direcci\u00F3n Gral. de Seguridad Publica, Protecci\u00F3n Civil y Bomberos","address":" \r\nBoulevard Panamericano 301 Tepeyac 45100"},
    {"name":"Diplomado de negocios","points":[{"lat":20.7367000579834, "lng":-103.402000427246}],"place":"Coordinaci\u00F3n de Centros de Aprendizaje","address":" \r\nAv. Laureles, Esquina Perif\u00E9rico 1151 Unidad FOVISSSTE 45149"},
    {"name":"Entrega de decomisos","points":[{"lat":20.7295253951705, "lng":-103.389458656311}],"place":"Dir. \u00C1rea Comercio","address":" \r\nAv. Laureles s\/n El Vigia 45140"},
    {"name":"Escuelas de futbol","points":[{"lat":20.7241992950439, "lng":-103.431999206543}],"place":"Consejo Municipal del Deporte ","address":" \r\nAv. Central 555 Residencial Poniente 45136"},
    {"name":"Escuelas Comunitarias de Iniciaci\u00F3n Deportiva","points":[{"lat":20.7241992950439, "lng":-103.431999206543}],"place":"Consejo Municipal del Deporte ","address":" \r\nAv. Central 555 Residencial Poniente 45136"},
    {"name":"Escuelas de iniciaci\u00F3n deportiva (gimnasia art\u00EDstica)","points":[{"lat":20.7241992950439, "lng":-103.431999206543}],"place":"Consejo Municipal del Deporte ","address":" \r\nAv. Central 555 Residencial Poniente 45136"},
    {"name":"Escuelas de iniciaci\u00F3n deportiva (gimnasio acondicionamiento f\u00EDsico)","points":[{"lat":20.7241992950439, "lng":-103.431999206543}],"place":"Consejo Municipal del Deporte ","address":" \r\nAv. Central 555 Residencial Poniente 45136"},
    {"name":"Escuelas de iniciaci\u00F3n deportiva (Nataci\u00F3n)","points":[{"lat":20.7262001037598, "lng":-103.383003234863}],"place":"Unidad Deportiva Parque \u00C1ngel Zapopan Romero","address":" \r\nAv. Santa Luc\u00EDa 1100 Tepeyac 45150"},
    {"name":"Estacionamiento exclusivo en la v\u00EDa p\u00FAblica (EEVP)","points":[{"lat":20.7516994476318, "lng":-103.361999511719}],"place":"Dir. Estacionometros","address":" \r\nEmiliano Zapata 29 Cabecera Municipal 45100"},
    {"name":"Estacionamiento p\u00FAblico en plazas \u00F3 centros comerciales vinculado a establecimientos mercantiles de servicio","points":[{"lat":20.7516994476318, "lng":-103.361999511719}],"place":"Dir. Estacionometros","address":" \r\nEmiliano Zapata 29 Cabecera Municipal 45100"},
    {"name":"Apoyo a los Adultos Mayores (estatal)","points":[{"lat":20.7205009460449, "lng":-103.393997192383}],"place":"Direcci\u00F3n General de Desarrollo Social y Humano","address":" \r\nG\u00F3mez Far\u00EDas 122 Linda Vista 45100"},
    {"name":"Estudio de laboratorio","points":[{"lat":20.7367000579834, "lng":-103.402000427246}],"place":"Departamento de Trabajo Social","address":" \r\nAv. Laureles, Esquina Perif\u00E9rico 1151 Unidad FOVISSSTE 45149"},
    {"name":"Estudios m\u00E9dicos especializados","points":[{"lat":20.7367000579834, "lng":-103.402000427246}],"place":"Departamento de Trabajo Social","address":" \r\nAv. Laureles, Esquina Perif\u00E9rico 1151 Unidad FOVISSSTE 45149"},
    {"name":"Eutanasia animal","points":[{"lat":20.7292003631592, "lng":-103.391998291016}],"place":"Depto. De Sanidad Animal","address":" \r\nAv. Laureles 380 Tepeyac 45100"},
    {"name":"Evaluaci\u00F3n de estudios de impacto ambiental ","points":[{"lat":20.7510574068368, "lng":-103.370275497437}],"place":"Dir. Protecci\u00F3n al Medio Ambiente","address":" \r\nAv. de los Robles 1566 Jardines del Vergel 45180"},
    {"name":"Eventos L\u00FAdicos, Deportivos y Recreativos","points":[{"lat":20.7241992950439, "lng":-103.431999206543}],"place":"Consejo Municipal del Deporte ","address":" \r\nAv. Central 555 Residencial Poniente 45136"},
    {"name":"Eventos y apoyos log\u00EDsticos","points":[{"lat":20.7217998504639, "lng":-103.393997192383}],"place":"Sub-Dir. de Acci\u00F3n Cultural","address":" \r\nVicente Guerrero 233 La Huerta 45160"},
    {"name":"Ex\u00E1men general de orina en Cruz Verde","points":[{"lat":17.1403007507324, "lng":-96.7567977905273}],"place":"Hospital General de Zapopan","address":" \r\nCol\u00F3n 289 Cabecera Municipal 45100"},
    {"name":"Ex\u00E1men general de sangre en Cruz Verde","points":[{"lat":17.1403007507324, "lng":-96.7567977905273}],"place":"Hospital General de Zapopan","address":" \r\nCol\u00F3n 289 Cabecera Municipal 45100"},
    {"name":"Ex\u00E1menes de laboratorio","points":[{"lat":17.1403007507324, "lng":-96.7567977905273}],"place":"Hospital General de Zapopan","address":" \r\nCol\u00F3n 289 Cabecera Municipal 45100"},
    {"name":"Exhumaci\u00F3n","points":[{"lat":20.7473351765714, "lng":-103.388793468475}],"place":"Dir. Cementerios","address":" \r\nIndustria de la Construcci\u00F3n 124 Zapopan Industrial Norte 45130"},
    {"name":"Expedici\u00F3n de copia certificada de acta","points":[{"lat":20.7210006713867, "lng":-103.391998291016}],"place":"Dir. de Registro Civil","address":" \r\nUnidad Administrativa Bas\u00EDlica, 1er. Piso s\/n Cabecera Municipal 45100"},
    {"name":"Expoventa de la glorieta Chapalita","points":[{"lat":20.7217998504639, "lng":-103.393997192383}],"place":"Sub-Dir. de Acci\u00F3n Cultural","address":" \r\nVicente Guerrero 233 La Huerta 45160"},
    {"name":"Extracci\u00F3n y env\u00EDo de muestras al laboratorio por sospecha de rabia.","points":[{"lat":20.7292003631592, "lng":-103.391998291016}],"place":"Depto. De Sanidad Animal","address":" \r\nAv. Laureles 380 Tepeyac 45100"},
    {"name":"Factibilidad de agua potable y alcantarillado sanitario y pluvial","points":[{"lat":20.6585006713867, "lng":-103.446998596191}],"place":"Dir. Agua y Alcantarillado","address":" \r\nAv. Guadalupe 6899 Chapalita Inn 45010"},
    {"name":"Factor y RH sangu\u00EDneo en Cruz Verde","points":[{"lat":17.1403007507324, "lng":-96.7567977905273}],"place":"Hospital General de Zapopan","address":" \r\nCol\u00F3n 289 Cabecera Municipal 45100"},
    {"name":"Diplomado en finanzas personales","points":[{"lat":20.7367000579834, "lng":-103.402000427246}],"place":"Coordinaci\u00F3n de Centros de Aprendizaje","address":" \r\nAv. Laureles, Esquina Perif\u00E9rico 1151 Unidad FOVISSSTE 45149"},
    {"name":"Fomento a la producci\u00F3n de alimentos para el autoconsumo","points":[{"lat":20.7367000579834, "lng":-103.402000427246}],"place":"Coordinaci\u00F3n de Asistencia Alimentaria","address":" \r\nAv. Laureles 777 Unidad FOVISSSTE 45149"},
    {"name":"Gastroenter\u00F3logo","points":[{"lat":17.1403007507324, "lng":-96.7567977905273}],"place":"Hospital General de Zapopan","address":" \r\nCol\u00F3n 289 Cabecera Municipal 45100"},
    {"name":"Gesti\u00F3n de obra social","points":[{"lat":20.7370709781792, "lng":-103.377131223679}],"place":"Dir. De Coplademun","address":" \r\nAv. Parres Arias esquina Perif\u00E9rico s\/n Parque Industrial Belenes 45140"},
    {"name":"Glucosa, urea, creatinina, amilasa, acido \u00FArico en Cruz Verde","points":[{"lat":17.1403007507324, "lng":-96.7567977905273}],"place":"Hospital General de Zapopan","address":" \r\nCol\u00F3n 289 Cabecera Municipal 45100"},
    {"name":"Grupo de depresi\u00F3n","points":[{"lat":20.7367000579834, "lng":-103.402000427246}],"place":"Coordinaci\u00F3n de Atenci\u00F3n Familiar","address":" \r\nCalle 1 330 Unidad FOVISSSTE 45149"},
    {"name":"Grupo de escuela para padres y madres","points":[{"lat":20.7367000579834, "lng":-103.402000427246}],"place":"Coordinaci\u00F3n de Atenci\u00F3n Familiar","address":" \r\nCalle 1 330 Unidad FOVISSSTE 45149"},
    {"name":"Escuela para padres de menores con autismo.","points":[{"lat":20.7367000579834, "lng":-103.402000427246}],"place":"Departamento de Atenci\u00F3n a Personas con Discapacidad","address":" \r\nAv. Laureles 777 Unidad FOVISSSTE 45149"},
    {"name":"Hombres por una trasformaci\u00F3n de equidad","points":[{"lat":20.7367000579834, "lng":-103.402000427246}],"place":"Coordinaci\u00F3n de Atenci\u00F3n Familiar","address":" \r\nCalle 1 330 Unidad FOVISSSTE 45149"},
    {"name":"Implementos m\u00E9dicos","points":[{"lat":20.7367000579834, "lng":-103.402000427246}],"place":"Departamento de Trabajo Social","address":" \r\nAv. Laureles, Esquina Perif\u00E9rico 1151 Unidad FOVISSSTE 45149"},
    {"name":"Incentivos fiscales para el desarrollo municipal","points":[{"lat":20.692699432373, "lng":-103.452003479004}],"place":"Dir. de Promoci\u00F3n de Inversi\u00F3n y Comercio Exterior","address":" \r\nAv. Vallarta 6503-F65 Ciudad Granja 45010"},
    {"name":"Incineraci\u00F3n","points":[{"lat":20.7292003631592, "lng":-103.391998291016}],"place":"Depto. De Sanidad Animal","address":" \r\nAv. Laureles 380 Tepeyac 45100"},
    {"name":"Desarrollo de la oferta exportable.","points":[{"lat":20.692699432373, "lng":-103.452003479004}],"place":"Dir. de Promoci\u00F3n de Inversi\u00F3n y Comercio Exterior","address":" \r\nAv. Vallarta 6503-F65 Ciudad Granja 45010"},
    {"name":"Informaci\u00F3n hist\u00F3rica del municipio","points":[{"lat":20.7219009399414, "lng":-103.389999389648}],"place":"Cronista Municipal ","address":" \r\nAv. Hidalgo , Planta Alta, Palacio Mpl. 151 Cabecera Municipal 45100"},
    {"name":"M\u00F3dulos de maquinaria para infraestructura productiva rural","points":[{"lat":20.7509002685547, "lng":-103.38500213623}],"place":"Dir. de Desarrollo Agropecuario","address":" \r\nPaseo de los Robles 1566 Jardines el Vergel 45700"},
    {"name":"Diplomado de habilidades b\u00E1sicas de ingl\u00E9s","points":[{"lat":20.73672982962, "lng":-103.402065038681}],"place":"Sistema para el Desarrollo Integral de la Familia del Municipio de Zapopan","address":" \r\nAv. Laureles, Esquina Perif\u00E9rico 1151 Unidad FOVISSSTE 45149"},
    {"name":"Ingreso a psicoterapia de adolescentes","points":[{"lat":20.7367000579834, "lng":-103.402000427246}],"place":"Coordinaci\u00F3n de Atenci\u00F3n Familiar","address":" \r\nCalle 1 330 Unidad FOVISSSTE 45149"},    
    {"name":"Ingreso a psicoterapia de aprendizaje","points":[{"lat":20.7367000579834, "lng":-103.402000427246}],"place":"Coordinaci\u00F3n de Atenci\u00F3n Familiar","address":" \r\nCalle 1 330 Unidad FOVISSSTE 45149"},
    {"name":"Ingreso a psicoterapia de conducta","points":[{"lat":20.7367000579834, "lng":-103.402000427246}],"place":"Coordinaci\u00F3n de Atenci\u00F3n Familiar","address":" \r\nCalle 1 330 Unidad FOVISSSTE 45149"},
    {"name":"Ingreso a psicoterapia de pareja","points":[{"lat":20.7367000579834, "lng":-103.402000427246}],"place":"Coordinaci\u00F3n de Atenci\u00F3n Familiar","address":" \r\nCalle 1 330 Unidad FOVISSSTE 45149"},
    {"name":"Ingreso a psicoterapia familiar","points":[{"lat":20.7367000579834, "lng":-103.402000427246}],"place":"Coordinaci\u00F3n de Atenci\u00F3n Familiar","address":" \r\nCalle 1 330 Unidad FOVISSSTE 45149"},
    {"name":"Ingreso a psicoterapia individual","points":[{"lat":20.7367000579834, "lng":-103.402000427246}],"place":"Coordinaci\u00F3n de Atenci\u00F3n Familiar","address":" \r\nCalle 1 330 Unidad FOVISSSTE 45149"},
    {"name":"Ingreso de menores a centros de atenci\u00F3n infantil comunitarios (C.A.I.C.)","points":[{"lat":20.7369003295898, "lng":-103.402000427246}],"place":"A.D.E.M.E.T.","address":" \r\nAv. Laureles, Esquina Perif\u00E9rico 1151 Unidad FOVISSSTE 45149"},
    {"name":"Ingreso de menores a centros de desarrollo infantil (C.D.I.)","points":[{"lat":20.7369003295898, "lng":-103.402000427246}],"place":"A.D.E.M.E.T.","address":" \r\nAv. Laureles, Esquina Perif\u00E9rico 1151 Unidad FOVISSSTE 45149"},
    {"name":"Ingreso de menores al programa de prevenci\u00F3n atenci\u00F3n de ni\u00F1as, ni\u00F1os y adolescentes migrantes repatriados no acompa\u00F1ados","points":[{"lat":20.7367000579834, "lng":-103.402000427246}],"place":"Departamento de Protecci\u00F3n de Ni\u00F1os, Ni\u00F1as y Adolescentes","address":" \r\nAv. Laureles, Esquina Perif\u00E9rico 1151 Unidad FOVISSSTE 45149"},
    {"name":"Ingreso de menores al programa de prevenci\u00F3n, atenci\u00F3n, desaliento y erradicaci\u00F3n de trabajo infantil urbano marginal PROPADETIUM","points":[{"lat":20.7367000579834, "lng":-103.402000427246}],"place":"Departamento de Protecci\u00F3n de Ni\u00F1os, Ni\u00F1as y Adolescentes","address":" \r\nAv. Laureles, Esquina Perif\u00E9rico 1151 Unidad FOVISSSTE 45149"},
    {"name":"Ingreso de ni\u00F1os, ni\u00F1as y adolescentes al programa de explotaci\u00F3n sexual comercial infantil","points":[{"lat":20.7367000579834, "lng":-103.402000427246}],"place":"Departamento de Protecci\u00F3n de Ni\u00F1os, Ni\u00F1as y Adolescentes","address":" \r\nAv. Laureles, Esquina Perif\u00E9rico 1151 Unidad FOVISSSTE 45149"},
    {"name":"Inhumaci\u00F3n","points":[{"lat":20.7473351765714, "lng":-103.388793468475}],"place":"Dir. Cementerios","address":" \r\nIndustria de la Construcci\u00F3n 124 Zapopan Industrial Norte 45130"},
    {"name":"Inscripci\u00F3n para escuelas deportivas","points":[{"lat":20.7367000579834, "lng":-103.402000427246}],"place":"Departamento de Atenci\u00F3n a Personas con Discapacidad","address":" \r\nAv. Laureles 777 Unidad FOVISSSTE 45149"},
    {"name":"Inspecciones de instalaciones de agua potable, alcantarillado, pluviales y planta de tratamiento","points":[{"lat":20.6585006713867, "lng":-103.446998596191}],"place":"Dir. Agua y Alcantarillado","address":" \r\nAv. Guadalupe 6899 Chapalita Inn 45010"},
    {"name":"Instalaci\u00F3n de descarga domiciliaria","points":[{"lat":20.6585006713867, "lng":-103.446998596191}],"place":"Dir. Agua y Alcantarillado","address":" \r\nAv. Guadalupe 6899 Chapalita Inn 45010"},
    {"name":"Instalaci\u00F3n de toma de agua","points":[{"lat":20.6585006713867, "lng":-103.446998596191}],"place":"Dir. Agua y Alcantarillado","address":" \r\nAv. Guadalupe 6899 Chapalita Inn 45010"},
    {"name":"Reparaci\u00F3n o reposici\u00F3n de luminaria","points":[{"lat":20.6585006713867, "lng":-103.446998596191}],"place":"Dir. Alumbrado","address":" \r\nAv. Guadalupe 6899 Chapalita Inn 45010"},
    {"name":"Operaci\u00F3n Territorial y Construcci\u00F3n de Ciudadan\u00EDa","points":[{"lat":20.7370709781792, "lng":-103.377131223679}],"place":"Dir. De Coplademun","address":" \r\nAv. Parres Arias esquina Perif\u00E9rico s\/n Parque Industrial Belenes 45140"},
    {"name":"Atenci\u00F3n en centros escolares","points":[{"lat":20.7367000579834, "lng":-103.402000427246}],"place":"Prevenci\u00F3n de Riesgos Psicosociales","address":" \r\nAv. Laureles, Esquina Perif\u00E9rico 1151 Unidad FOVISSSTE 45149"},
    {"name":"Lentes convencionales","points":[{"lat":20.7367000579834, "lng":-103.402000427246}],"place":"Departamento de Trabajo Social","address":" \r\nAv. Laureles, Esquina Perif\u00E9rico 1151 Unidad FOVISSSTE 45149"},
    {"name":"Levantamiento de sellos de clausura","points":[{"lat":20.729485258085, "lng":-103.389458656311}],"place":"Dir. \u00C1rea T\u00E9cnica","address":" \r\nAv. Laureles s\/n El Vigia 45140"},
    {"name":"Licencia de urbanizaci\u00F3n","points":[{"lat":20.7354655664891, "lng":-103.377163410187}],"place":"Sub-Dir. T\u00E9cnica","address":" \r\n Av. Parres Arias esquina Perif\u00E9rico S\/N Parque Industrial Belenes 45145"},
    {"name":"Licencia o permiso de construcci\u00F3n mayor a 50 mts2","points":[{"lat":20.7354655664891, "lng":-103.377163410187}],"place":"Sub-Dir. T\u00E9cnica","address":" \r\n Av. Parres Arias esquina Perif\u00E9rico S\/N Parque Industrial Belenes 45145"},
    {"name":"Licencia o permiso de construcci\u00F3n menor a 50 mts2","points":[{"lat":20.7354655664891, "lng":-103.377163410187}],"place":"Sub-Dir. T\u00E9cnica","address":" \r\n Av. Parres Arias esquina Perif\u00E9rico S\/N Parque Industrial Belenes 45145"},
    {"name":"Limpieza y reparaci\u00F3n de rejillas en boca de tormenta","points":[{"lat":20.6585006713867, "lng":-103.446998596191}],"place":"Dir. Agua y Alcantarillado","address":" \r\nAv. Guadalupe 6899 Chapalita Inn 45010"},
    {"name":"Manifestaci\u00F3n de construcci\u00F3n y\/o actualizaci\u00F3n de tasa","points":[{"lat":20.7370308430945, "lng":-103.376970291138}],"place":"Dir. de Catastro","address":" \r\nAv. Parres Arias esquina Perif\u00E9rico Norte S\/N Parque Industrial Belenes 45140"},
    {"name":"Manifestaci\u00F3n de excedencia de superficie de terreno","points":[{"lat":20.7370308430945, "lng":-103.376970291138}],"place":"Dir. de Catastro","address":" \r\nAv. Parres Arias esquina Perif\u00E9rico Norte S\/N Parque Industrial Belenes 45140"},
    {"name":"Mantenimiento de \u00E1reas verdes municipales","points":[{"lat":20.7302879977735, "lng":-103.403395414352}],"place":"Dir. Parques y Jardines","address":" \r\nAv. Tesistan 801 Sta. Margarita 45100"},
    {"name":"Programa de Mantenimiento de T\u00FAneles, Pasos a Desnivel y Puentes Peatonales.","points":[{"lat":20.725700378418, "lng":-103.379997253418}],"place":"Dir. Mantenimiento Urbano","address":" \r\nSta. Luc\u00EDa 373 Tepeyac 45100"},
    {"name":"Mantenimiento y limpieza de red de alcantarillado con equipo de succi\u00F3n","points":[{"lat":20.6585006713867, "lng":-103.446998596191}],"place":"Dir. Agua y Alcantarillado","address":" \r\nAv. Guadalupe 6899 Chapalita Inn 45010"},
    {"name":"Mastograf\u00EDa","points":[{"lat":17.1403007507324, "lng":-96.7567977905273}],"place":"Hospital General de Zapopan","address":" \r\nCol\u00F3n 289 Cabecera Municipal 45100"},
    {"name":"Medicina interna","points":[{"lat":17.1403007507324, "lng":-96.7567977905273}],"place":"Hospital General de Zapopan","address":" \r\nCol\u00F3n 289 Cabecera Municipal 45100"},
    {"name":"Modelo estatal de nutrici\u00F3n escolar MENUTRE","points":[{"lat":20.7367000579834, "lng":-103.402000427246}],"place":"Coordinaci\u00F3n de Asistencia Alimentaria","address":" \r\nAv. Laureles 777 Unidad FOVISSSTE 45149"},
    {"name":"Modificaci\u00F3n de licencia de giro comercial","points":[{"lat":20.7356662438817, "lng":-103.377141952515}],"place":"Oficial\u00EDa Mayor Padr\u00F3n y Licencias","address":" \r\n Av. Parres Arias esquina Perif\u00E9rico s\/n Parque Industrial Belenes 45140"},
    {"name":"Registro nuevo y actualizaci\u00F3n de Director Responsable de Obra de Edificaci\u00F3n","points":[{"lat":20.7354655664891, "lng":-103.377163410187}],"place":"Sub-Dir. T\u00E9cnica","address":" \r\n Av. Parres Arias esquina Perif\u00E9rico S\/N Parque Industrial Belenes 45145"},
    {"name":"Nutrici\u00F3n","points":[{"lat":17.1403007507324, "lng":-96.7567977905273}],"place":"Hospital General de Zapopan","address":" \r\nCol\u00F3n 289 Cabecera Municipal 45100"},
    {"name":"Observaci\u00F3n de perros y gatos sospechosos de rabia.","points":[{"lat":20.7292003631592, "lng":-103.391998291016}],"place":"Depto. De Sanidad Animal","address":" \r\nAv. Laureles 380 Tepeyac 45100"},
    {"name":"Observaci\u00F3n domiciliaria de perros y gatos sospechosos de rabia.","points":[{"lat":20.7292003631592, "lng":-103.391998291016}],"place":"Depto. De Sanidad Animal","address":" \r\nAv. Laureles 380 Tepeyac 45100"},
    {"name":"Observatorio de la violencia social y de g\u00E9nero","points":[{"lat":20.7367000579834, "lng":-103.402000427246}],"place":"Coordinaci\u00F3n de Atenci\u00F3n Familiar","address":" \r\nCalle 1 330 Unidad FOVISSSTE 45149"},
    {"name":"Opiniones T\u00E9cnicas Ambientales","points":[{"lat":20.7510574068368, "lng":-103.370275497437}],"place":"Dir. Protecci\u00F3n al Medio Ambiente","address":" \r\nAv. de los Robles 1566 Jardines del Vergel 45180"},
    {"name":"Orquiectom\u00EDa","points":[{"lat":20.7292003631592, "lng":-103.391998291016}],"place":"Depto. De Sanidad Animal","address":" \r\nAv. Laureles 380 Tepeyac 45100"},
    {"name":"Otorrinolaringolog\u00EDa","points":[{"lat":17.1403007507324, "lng":-96.7567977905273}],"place":"Hospital General de Zapopan","address":" \r\nCol\u00F3n 289 Cabecera Municipal 45100"},
    {"name":"Ovariohisterectom\u00EDa","points":[{"lat":20.7292003631592, "lng":-103.391998291016}],"place":"Depto. De Sanidad Animal","address":" \r\nAv. Laureles 380 Tepeyac 45100"},
    {"name":"Pago de copias certificadas","points":[{"lat":20.7274081493859, "lng":-103.386079072952}],"place":"Coord. Gral. de Juzgados Municipales ","address":" \r\nAv. Juan Pablo II 252 Tepeyac 45150"},
    {"name":"Pago de predial","points":[{"lat":20.7370308430945, "lng":-103.376970291138}],"place":"Dir. de Catastro","address":" \r\nAv. Parres Arias esquina Perif\u00E9rico Norte S\/N Parque Industrial Belenes 45140"},
    {"name":"Papanicolaou","points":[{"lat":17.1403007507324, "lng":-96.7567977905273}],"place":"Hospital General de Zapopan","address":" \r\nCol\u00F3n 289 Cabecera Municipal 45100"},
    {"name":"Partes de lesiones","points":[{"lat":17.1403007507324, "lng":-96.7567977905273}],"place":"Hospital General de Zapopan","address":" \r\nCol\u00F3n 289 Cabecera Municipal 45100"},
    {"name":"Pasaporte Mexicano canje","points":[{"lat":20.6586769283666, "lng":-103.433607816696}],"place":"Depto. de Relaciones Exteriores ","address":" \r\nAv. Guadalupe Esq. Av.Cop\u00E9rnico 6000 Guadalupe Inn 45036"},
    {"name":"Pasaporte Mexicano canje menores de edad","points":[{"lat":20.6586769283666, "lng":-103.433607816696}],"place":"Depto. de Relaciones Exteriores ","address":" \r\nAv. Guadalupe Esq. Av.Cop\u00E9rnico 6000 Guadalupe Inn 45036"},
    {"name":"Pasaporte mexicano menores de edad","points":[{"lat":20.6586769283666, "lng":-103.433607816696}],"place":"Depto. de Relaciones Exteriores ","address":" \r\nAv. Guadalupe Esq. Av.Cop\u00E9rnico 6000 Guadalupe Inn 45036"},
    {"name":"Pasaporte mexicano nuevo","points":[{"lat":20.6586769283666, "lng":-103.433607816696}],"place":"Depto. de Relaciones Exteriores ","address":" \r\nAv. Guadalupe Esq. Av.Cop\u00E9rnico 6000 Guadalupe Inn 45036"},
    {"name":"Pediatr\u00EDa en Cruz Verde","points":[{"lat":17.1403007507324, "lng":-96.7567977905273}],"place":"Hospital General de Zapopan","address":" \r\nCol\u00F3n 289 Cabecera Municipal 45100"},
    {"name":"Permiso de acuerdo de cabildo","points":[{"lat":20.7356662438817, "lng":-103.377141952515}],"place":"Oficial\u00EDa Mayor Padr\u00F3n y Licencias","address":" \r\n Av. Parres Arias esquina Perif\u00E9rico s\/n Parque Industrial Belenes 45140"},
    {"name":"Permiso de anuncio de local comercial","points":[{"lat":20.7356662438817, "lng":-103.377141952515}],"place":"Oficial\u00EDa Mayor Padr\u00F3n y Licencias","address":" \r\n Av. Parres Arias esquina Perif\u00E9rico s\/n Parque Industrial Belenes 45140"},
    {"name":"Permiso de Islas en plazas comerciales","points":[{"lat":20.7356662438817, "lng":-103.377141952515}],"place":"Oficial\u00EDa Mayor Padr\u00F3n y Licencias","address":" \r\n Av. Parres Arias esquina Perif\u00E9rico s\/n Parque Industrial Belenes 45140"},
    {"name":"Permiso de pirotecnia","points":[{"lat":20.7356662438817, "lng":-103.377141952515}],"place":"Oficial\u00EDa Mayor Padr\u00F3n y Licencias","address":" \r\n Av. Parres Arias esquina Perif\u00E9rico s\/n Parque Industrial Belenes 45140"},
    {"name":"Permiso ocasional, eventual y festividad para juegos mec\u00E1nicos, juegos complementarios y complementos (comercio)","points":[{"lat":20.728311243626, "lng":-103.403250575066}],"place":"Dir. Mercados","address":" \r\nFray Francisco de Lorenzo Esq. Fray Toribio de Motolinia 100 Cabecera Municipal 45100"},
    {"name":"Permiso para acomodadores de veh\u00EDculos (valet parking)","points":[{"lat":20.7356662438817, "lng":-103.377141952515}],"place":"Oficial\u00EDa Mayor Padr\u00F3n y Licencias","address":" \r\n Av. Parres Arias esquina Perif\u00E9rico s\/n Parque Industrial Belenes 45140"},
    {"name":"Permiso para actividades extractivas","points":[{"lat":20.7356662438817, "lng":-103.377141952515}],"place":"Oficial\u00EDa Mayor Padr\u00F3n y Licencias","address":" \r\n Av. Parres Arias esquina Perif\u00E9rico s\/n Parque Industrial Belenes 45140"},
    {"name":"Permiso para degustaci\u00F3n de bebidas alcoh\u00F3licas","points":[{"lat":20.7356662438817, "lng":-103.377141952515}],"place":"Oficial\u00EDa Mayor Padr\u00F3n y Licencias","address":" \r\n Av. Parres Arias esquina Perif\u00E9rico s\/n Parque Industrial Belenes 45140"},
    {"name":"Permiso para eventos","points":[{"lat":20.7356662438817, "lng":-103.377141952515}],"place":"Oficial\u00EDa Mayor Padr\u00F3n y Licencias","address":" \r\n Av. Parres Arias esquina Perif\u00E9rico s\/n Parque Industrial Belenes 45140"},
    {"name":"Permiso para eventos de circo","points":[{"lat":20.7356662438817, "lng":-103.377141952515}],"place":"Oficial\u00EDa Mayor Padr\u00F3n y Licencias","address":" \r\n Av. Parres Arias esquina Perif\u00E9rico s\/n Parque Industrial Belenes 45140"},
    {"name":"Permiso para eventos de lucha y box","points":[{"lat":20.7356662438817, "lng":-103.377141952515}],"place":"Oficial\u00EDa Mayor Padr\u00F3n y Licencias","address":" \r\n Av. Parres Arias esquina Perif\u00E9rico s\/n Parque Industrial Belenes 45140"},
    {"name":"Permiso para eventos delegacionales","points":[{"lat":20.7356662438817, "lng":-103.377141952515}],"place":"Oficial\u00EDa Mayor Padr\u00F3n y Licencias","address":" \r\n Av. Parres Arias esquina Perif\u00E9rico s\/n Parque Industrial Belenes 45140"},
    {"name":"Permiso para palenque","points":[{"lat":20.7356662438817, "lng":-103.377141952515}],"place":"Oficial\u00EDa Mayor Padr\u00F3n y Licencias","address":" \r\n Av. Parres Arias esquina Perif\u00E9rico s\/n Parque Industrial Belenes 45140"},
    {"name":"Permiso para puesto ambulante o m\u00F3vil en la v\u00EDa p\u00FAblica","points":[{"lat":20.728311243626, "lng":-103.403250575066}],"place":"Dir. Mercados","address":" \r\nFray Francisco de Lorenzo Esq. Fray Toribio de Motolinia 100 Cabecera Municipal 45100"},
    {"name":"Permiso para puesto fijo y\/o semi-fijo en la v\u00EDa p\u00FAblica","points":[{"lat":20.728311243626, "lng":-103.403250575066}],"place":"Dir. Mercados","address":" \r\nFray Francisco de Lorenzo Esq. Fray Toribio de Motolinia 100 Cabecera Municipal 45100"},
    {"name":"Permiso por ausencia temporal en tianguis","points":[{"lat":20.728311243626, "lng":-103.403250575066}],"place":"Dir. Mercados","address":" \r\nFray Francisco de Lorenzo Esq. Fray Toribio de Motolinia 100 Cabecera Municipal 45100"},
    {"name":"Permiso de sacrificio de porcinos","points":[{"lat":20.7474002838135, "lng":-103.38200378418}],"place":"Dir. Rastro Municipal","address":" \r\nAv. del Rastro s\/n Bosques de San Isidro 45140"},
    {"name":"Permiso de sacrificio de bovinos","points":[{"lat":20.7474002838135, "lng":-103.38200378418}],"place":"Dir. Rastro Municipal","address":" \r\nAv. del Rastro s\/n Bosques de San Isidro 45140"},
    {"name":"Permisos \u00FAnicos y ocasionales","points":[{"lat":20.728311243626, "lng":-103.403250575066}],"place":"Dir. Mercados","address":" \r\nFray Francisco de Lorenzo Esq. Fray Toribio de Motolinia 100 Cabecera Municipal 45100"},
    {"name":"Permisos de sacrificio de porcinos en Rastro de Atemajac","points":[{"lat":20.7474002838135, "lng":-103.38200378418}],"place":"Dir. Rastro Municipal","address":" \r\nAv. del Rastro s\/n Bosques de San Isidro 45140"},
    {"name":"Programa de balizamiento para la seguridad peatonal","points":[{"lat":20.725700378418, "lng":-103.379997253418}],"place":"Dir. Mantenimiento Urbano","address":" \r\nSta. Luc\u00EDa 373 Tepeyac 45100"},
    {"name":"Plantaciones y cortinas rompevientos","points":[{"lat":20.7509002685547, "lng":-103.38500213623}],"place":"Dir. de Desarrollo Agropecuario","address":" \r\nPaseo de los Robles 1566 Jardines el Vergel 45700"},
    {"name":"Podas cuando el servicio se encuentra en el domicilio del solicitante","points":[{"lat":20.7302879977735, "lng":-103.403395414352}],"place":"Dir. Parques y Jardines","address":" \r\nAv. Tesistan 801 Sta. Margarita 45100"},
    {"name":"Podas, transplantes o derribos de sujetos forestales.","points":[{"lat":20.7302879977735, "lng":-103.403395414352}],"place":"Dir. Parques y Jardines","address":" \r\nAv. Tesistan 801 Sta. Margarita 45100"},
    {"name":"Preconsulta m\u00E9dica","points":[{"lat":20.7367000579834, "lng":-103.402000427246}],"place":"Departamento de Atenci\u00F3n a Personas con Discapacidad","address":" \r\nAv. Laureles 777 Unidad FOVISSSTE 45149"},
    {"name":"Preparatoria por internet del Tecnol\u00F3gico de Monterrey","points":[{"lat":20.7367000579834, "lng":-103.402000427246}],"place":"Coordinaci\u00F3n de Centros de Aprendizaje","address":" \r\nAv. Laureles, Esquina Perif\u00E9rico 1151 Unidad FOVISSSTE 45149"},
    {"name":"Pr\u00E9stamo de bicicletas para la V\u00EDa RecreActiva","points":[{"lat":20.7241992950439, "lng":-103.431999206543}],"place":"Consejo Municipal del Deporte ","address":" \r\nAv. Central 555 Residencial Poniente 45136"},
    {"name":"Prevenci\u00F3n y atenci\u00F3n integral del embarazo adolescente ","points":[{"lat":20.7367000579834, "lng":-103.402000427246}],"place":"Departamento de Protecci\u00F3n de Ni\u00F1os, Ni\u00F1as y Adolescentes","address":" \r\nAv. Laureles, Esquina Perif\u00E9rico 1151 Unidad FOVISSSTE 45149"},
    {"name":"Preventa ","points":[{"lat":20.7354655664891, "lng":-103.377163410187}],"place":"Sub-Dir. T\u00E9cnica","address":" \r\n Av. Parres Arias esquina Perif\u00E9rico S\/N Parque Industrial Belenes 45145"},
    {"name":"Procedimiento sancionatorio","points":[{"lat":20.7217586709599, "lng":-103.389780521393}],"place":"Dir. Jur\u00EDdica Contencioso ","address":" \r\nAv. Hidalgo , Planta Alta, Palacio Mpl. 151 Cabecera Municipal 45100"},
    {"name":"Proceso de responsabilidad patrimonial","points":[{"lat":20.7217586709599, "lng":-103.389780521393}],"place":"Dir. Jur\u00EDdica Contencioso ","address":" \r\nAv. Hidalgo , Planta Alta, Palacio Mpl. 151 Cabecera Municipal 45100"},
    {"name":"Pensi\u00F3n para Adultos Mayores","points":[{"lat":20.7205009460449, "lng":-103.393997192383}],"place":"Direcci\u00F3n General de Desarrollo Social y Humano","address":" \r\nG\u00F3mez Far\u00EDas 122 Linda Vista 45100"},
    {"name":"Programa alimentario a menores no escolarizados (PROALIMNE)","points":[{"lat":20.7367000579834, "lng":-103.402000427246}],"place":"Coordinaci\u00F3n de Asistencia Alimentaria","address":" \r\nAv. Laureles 777 Unidad FOVISSSTE 45149"},
    {"name":"Programa de antigraffiti","points":[{"lat":20.7367000579834, "lng":-103.402000427246}],"place":"Prevenci\u00F3n de Riesgos Psicosociales","address":" \r\nAv. Laureles, Esquina Perif\u00E9rico 1151 Unidad FOVISSSTE 45149"},
    {"name":"Programa de apoyos materiales a la educaci\u00f3n (PAME)","points":[{"lat":20.7226015905318, "lng":-103.394157886505}],"place":"Dir. De Educaci\u00F3n Municipal","address":" \r\nVicente Guerrero 262 Cabecera Municipal 45100"},
    {"name":"Terapias especializadas en Autismo.","points":[{"lat":20.7367000579834, "lng":-103.402000427246}],"place":"Departamento de Atenci\u00F3n a Personas con Discapacidad","address":" \r\nAv. Laureles 777 Unidad FOVISSSTE 45149"},
    {"name":"Programa de ayuda alimentaria directa (despensas para familias vulnerables)","points":[{"lat":20.7367000579834, "lng":-103.402000427246}],"place":"Coordinaci\u00F3n de Asistencia Alimentaria","address":" \r\nAv. Laureles 777 Unidad FOVISSSTE 45149"},
    {"name":"Programa de educaci\u00F3n abierta, b\u00E1sica y preparatoria","points":[{"lat":20.7300672447835, "lng":-103.384845256805}],"place":"Direcci\u00F3n Gral. de Seguridad Publica, Protecci\u00F3n Civil y Bomberos","address":" \r\nBoulevard Panamericano 301 Tepeyac 45100"},
    {"name":"Programa de esfuerzos compartidos","points":[{"lat":20.7205009460449, "lng":-103.393997192383}],"place":"Direcci\u00F3n General de Desarrollo Social y Humano","address":" \r\nG\u00F3mez Far\u00EDas 122 Linda Vista 45100"},
    {"name":"Programa H\u00E1bitat","points":[{"lat":20.7205009460449, "lng":-103.393997192383}],"place":"Direcci\u00F3n General de Desarrollo Social y Humano","address":" \r\nG\u00F3mez Far\u00EDas 122 Linda Vista 45100"},
    {"name":"Programas de prevenci\u00F3n del delito en escuelas","points":[{"lat":20.7300672447835, "lng":-103.384845256805}],"place":"Direcci\u00F3n Gral. de Seguridad Publica, Protecci\u00F3n Civil y Bomberos","address":" \r\nBoulevard Panamericano 301 Tepeyac 45100"},
    {"name":"Programas de prevenci\u00F3n del delito en las colonias","points":[{"lat":20.7300672447835, "lng":-103.384845256805}],"place":"Direcci\u00F3n Gral. de Seguridad Publica, Protecci\u00F3n Civil y Bomberos","address":" \r\nBoulevard Panamericano 301 Tepeyac 45100"},
    {"name":"Unidad de Violencia Intrafamiliar","points":[{"lat":20.7300672447835, "lng":-103.384845256805}],"place":"Direcci\u00F3n Gral. de Seguridad Publica, Protecci\u00F3n Civil y Bomberos","address":" \r\nBoulevard Panamericano 301 Tepeyac 45100"},
    {"name":"Promoci\u00F3n de becas PROPADETIUM (ramo 33, nacional, ex, migrantes)","points":[{"lat":20.7367000579834, "lng":-103.402000427246}],"place":"Departamento de Protecci\u00F3n de Ni\u00F1os, Ni\u00F1as y Adolescentes","address":" \r\nAv. Laureles, Esquina Perif\u00E9rico 1151 Unidad FOVISSSTE 45149"},
    {"name":"Promoci\u00F3n de misiones comerciales, ferias internacionales y otros eventos locales, nacionales e internacionales","points":[{"lat":20.692699432373, "lng":-103.452003479004}],"place":"Dir. de Promoci\u00F3n de Inversi\u00F3n y Comercio Exterior","address":" \r\nAv. Vallarta 6503-F65 Ciudad Granja 45010"},
    {"name":"Pr\u00F3rroga de licencia o permiso vencida","points":[{"lat":20.7354655664891, "lng":-103.377163410187}],"place":"Sub-Dir. T\u00E9cnica","address":" \r\n Av. Parres Arias esquina Perif\u00E9rico S\/N Parque Industrial Belenes 45145"},
    {"name":"Protecci\u00F3n de \u00C1reas Naturales.","points":[{"lat":20.7510574068368, "lng":-103.370275497437}],"place":"Dir. Protecci\u00F3n al Medio Ambiente","address":" \r\nAv. de los Robles 1566 Jardines del Vergel 45180"},
    {"name":"Prote\u00EDna C reactiva, antiestreptolisinas, velocidad de sedimentaci\u00F3n globular, factor reumatoide en Cruz Verde","points":[{"lat":17.1403007507324, "lng":-96.7567977905273}],"place":"Hospital General de Zapopan","address":" \r\nCol\u00F3n 289 Cabecera Municipal 45100"},
    {"name":"Pruebas de embarazo en sangre en Cruz Verde","points":[{"lat":17.1403007507324, "lng":-96.7567977905273}],"place":"Hospital General de Zapopan","address":" \r\nCol\u00F3n 289 Cabecera Municipal 45100"},
    {"name":"Pruebas funcionales hep\u00E1ticas","points":[{"lat":17.1403007507324, "lng":-96.7567977905273}],"place":"Hospital General de Zapopan","address":" \r\nCol\u00F3n 289 Cabecera Municipal 45100"},
    {"name":"Psicoeducaci\u00F3n","points":[{"lat":17.1403007507324, "lng":-96.7567977905273}],"place":"Hospital General de Zapopan","address":" \r\nCol\u00F3n 289 Cabecera Municipal 45100"},
    {"name":"Psicolog\u00EDa","points":[{"lat":17.1403007507324, "lng":-96.7567977905273}],"place":"Hospital General de Zapopan","address":" \r\nCol\u00F3n 289 Cabecera Municipal 45100"},
    {"name":"Quejas ciudadan\u00EDa (familiar, vecinal o conyugal)","points":[{"lat":20.7253109430942, "lng":-103.386701345444}],"place":"Procuradur\u00EDa Social y Ciudadana","address":" \r\nAv. Juan Pablo II 204 Tepeyac 45150"},
    {"name":"Quejas ciudadan\u00EDa \u00E1rea de mediaci\u00F3n","points":[{"lat":20.7253109430942, "lng":-103.386701345444}],"place":"Procuradur\u00EDa Social y Ciudadana","address":" \r\nAv. Juan Pablo II 204 Tepeyac 45150"},
    {"name":"Radiograf\u00EDas","points":[{"lat":17.1403007507324, "lng":-96.7567977905273}],"place":"Hospital General de Zapopan","address":" \r\nCol\u00F3n 289 Cabecera Municipal 45100"},
    {"name":"Ratificaci\u00F3n de registro de nacimiento","points":[{"lat":20.7367000579834, "lng":-103.402000427246}],"place":"Consejo Municipal de la Familia","address":" \r\nAv. Laureles 777 Unidad FOVISSSTE 45149"},
    {"name":"Reinhumaci\u00F3n","points":[{"lat":20.7473351765714, "lng":-103.388793468475}],"place":"Dir. Cementerios","address":" \r\nIndustria de la Construcci\u00F3n 124 Zapopan Industrial Norte 45130"},
    {"name":"Realizaci\u00f3n de asambleas para la integraci\u00f3n de asociaciones vecinales","points":[{"lat":20.7205009460449, "lng":-103.393997192383}],"place":"Direcci\u00F3n General de Desarrollo Social y Humano","address":" \r\nG\u00F3mez Far\u00EDas 122 Linda Vista 45100"},
    {"name":"Realizaci\u00f3n de asambleas para la reestructuraci\u00f3n de integrantes de mesas directivas de asociaciones vecinales","points":[{"lat":20.7205009460449, "lng":-103.393997192383}],"place":"Direcci\u00F3n General de Desarrollo Social y Humano","address":" \r\nG\u00F3mez Far\u00EDas 122 Linda Vista 45100"},
    {"name":"Realizaci\u00f3n de asambleas para la renovaci\u00f3n de asociaciones vecinales","points":[{"lat":20.7205009460449, "lng":-103.393997192383}],"place":"Direcci\u00F3n General de Desarrollo Social y Humano","address":" \r\nG\u00F3mez Far\u00EDas 122 Linda Vista 45100"},
    {"name":"Recepci\u00F3n de documentos dirigidos a la Direcci\u00F3n de Seguridad P\u00FAblica","points":[{"lat":20.7300672447835, "lng":-103.384845256805}],"place":"Direcci\u00F3n Gral. de Seguridad Publica, Protecci\u00F3n Civil y Bomberos","address":" \r\nBoulevard Panamericano 301 Tepeyac 45100"},
    {"name":"Recepci\u00F3n de obras de urbanizaci\u00F3n","points":[{"lat":20.7354655664891, "lng":-103.377163410187}],"place":"Sub-Dir. T\u00E9cnica","address":" \r\n Av. Parres Arias esquina Perif\u00E9rico S\/N Parque Industrial Belenes 45145"},
    {"name":"Recepci\u00F3n de solicitudes ciudadanas","points":[{"lat":20.7219009399414, "lng":-103.389999389648}],"place":"Dir. de Atenci\u00f3n Ciudadana","address":" \r\nAv. Hidalgo , Planta Baja, Palacio Mpl. 151 Cabecera Municipal 45100"},
    {"name":"Recepci\u00f3n y canalizaci\u00f3n de peticiones de las asociaciones vecinales a las dependencias municipales","points":[{"lat":20.7205009460449, "lng":-103.393997192383}],"place":"Direcci\u00F3n General de Desarrollo Social y Humano","address":" \r\nG\u00F3mez Far\u00EDas 122 Linda Vista 45100"},
    {"name":"Reclamaci\u00F3n de indemnizaci\u00F3n por responsabilidad patrimonial","points":[{"lat":20.727337908497, "lng":-103.385832309723}],"place":"Dir. Jur\u00EDdica de Seguridad P\u00FAblica ","address":" \r\nAv. Juan Pablo II 252 Tepeyac 45150"},
    {"name":"Recolecci\u00F3n de desechos forestales","points":[{"lat":20.7302879977735, "lng":-103.403395414352}],"place":"Dir. Parques y Jardines","address":" \r\nAv. Tesistan 801 Sta. Margarita 45100"},
    {"name":"Recolecci\u00F3n de perros de la v\u00EDa p\u00FAblica.","points":[{"lat":20.7292003631592, "lng":-103.391998291016}],"place":"Depto. De Sanidad Animal","address":" \r\nAv. Laureles 380 Tepeyac 45100"},
    {"name":"Recolecci\u00F3n de Tianguis","points":[{"lat":20.7396195342585, "lng":-103.393986225128}],"place":"Dir. Aseo Publico","address":" \r\nLateral de periferico norte 529 El Vigia 45100"},
    {"name":"Recolecci\u00F3n domiciliaria","points":[{"lat":20.7396195342585, "lng":-103.393986225128}],"place":"Dir. Aseo Publico","address":" \r\nLateral de periferico norte 529 El Vigia 45100"},
    {"name":"Recolecci\u00F3n institucional","points":[{"lat":20.7396195342585, "lng":-103.393986225128}],"place":"Dir. Aseo Publico","address":" \r\nLateral de periferico norte 529 El Vigia 45100"},
    {"name":"Recorridos Tur\u00EDsticos","points":[{"lat":20.692699432373, "lng":-103.452003479004}],"place":"Dir. de Turismo","address":" \r\nAv. Vallarta 6503-F65 Ciudad Granja 45010"},
    {"name":"Recuperaci\u00F3n de predios municipales invadidos","points":[{"lat":20.7218389492165, "lng":-103.389801979065}],"place":"Sindicatura","address":" \r\nAv. Hidalgo , Planta Alta, Palacio Mpl. 151 Cabecera Municipal 45100"},
    {"name":"Recurso de revisi\u00F3n de resoluciones administrativas","points":[{"lat":20.7217586709599, "lng":-103.389780521393}],"place":"Dir. Jur\u00EDdica Contencioso ","address":" \r\nAv. Hidalgo , Planta Alta, Palacio Mpl. 151 Cabecera Municipal 45100"},
    {"name":"Atenci\u00F3n a comunidades","points":[{"lat":20.7367000579834, "lng":-103.402000427246}],"place":"Prevenci\u00F3n de Riesgos Psicosociales","address":" \r\nAv. Laureles, Esquina Perif\u00E9rico 1151 Unidad FOVISSSTE 45149"},
    {"name":"Red juvenil becas","points":[{"lat":20.7367000579834, "lng":-103.402000427246}],"place":"Prevenci\u00F3n de Riesgos Psicosociales","address":" \r\nAv. Laureles, Esquina Perif\u00E9rico 1151 Unidad FOVISSSTE 45149"},
    {"name":"Refrendo de permisos bimestrales (fijos, semi-fijos y ambulantes)","points":[{"lat":20.728311243626, "lng":-103.403250575066}],"place":"Dir. Mercados","address":" \r\nFray Francisco de Lorenzo Esq. Fray Toribio de Motolinia 100 Cabecera Municipal 45100"},
    {"name":"R\u00E9gimen de Condominio","points":[{"lat":20.7354655664891, "lng":-103.377163410187}],"place":"Sub-Dir. T\u00E9cnica","address":" \r\n Av. Parres Arias esquina Perif\u00E9rico S\/N Parque Industrial Belenes 45145"},
    {"name":"Registro de juegos mec\u00E1nicos, juegos complementarios y complementos (comercio)","points":[{"lat":20.728311243626, "lng":-103.403250575066}],"place":"Dir. Mercados","address":" \r\nFray Francisco de Lorenzo Esq. Fray Toribio de Motolinia 100 Cabecera Municipal 45100"},
    {"name":"Registro de plazas comerciales y\/o parque industrial","points":[{"lat":20.7356662438817, "lng":-103.377141952515}],"place":"Oficial\u00EDa Mayor Padr\u00F3n y Licencias","address":" \r\n Av. Parres Arias esquina Perif\u00E9rico s\/n Parque Industrial Belenes 45140"},
    {"name":"Registro en el Padr\u00F3n de Publicistas","points":[{"lat":20.7356662438817, "lng":-103.377141952515}],"place":"Oficial\u00EDa Mayor Padr\u00F3n y Licencias","address":" \r\n Av. Parres Arias esquina Perif\u00E9rico s\/n Parque Industrial Belenes 45140"},
    {"name":"Registro y reconocimiento de asociaciones vecinales o de colonos","points":[{"lat":20.7205009460449, "lng":-103.393997192383}],"place":"Direcci\u00F3n General de Desarrollo Social y Humano","address":" \r\nG\u00F3mez Far\u00EDas 122 Linda Vista 45100"},
    {"name":"Regularizaci\u00F3n de predios r\u00FAsticos de la peque\u00F1a propiedad","points":[{"lat":20.7219009399414, "lng":-103.389999389648}],"place":"Secretar\u00EDa del Ayuntamiento ","address":" \r\nAv. Hidalgo , Planta Alta, Palacio Mpl. 151 Cabecera Municipal 45100"},
    {"name":"Inclusi\u00F3n educativa","points":[{"lat":20.7367000579834, "lng":-103.402000427246}],"place":"\u00C1rea de Vinculaci\u00F3n Laboral para la Discapacidad","address":" \r\nAv. Laureles 777 Unidad FOVISSSTE 45149"},
    {"name":"Rehabilitaci\u00F3n","points":[{"lat":17.1403007507324, "lng":-96.7567977905273}],"place":"Hospital General de Zapopan","address":" \r\nCol\u00F3n 289 Cabecera Municipal 45100"},
    {"name":"Rehabilitaci\u00F3n y reforestaci\u00F3n (\u00E1reas verdes Municipales)","points":[{"lat":20.7302879977735, "lng":-103.403395414352}],"place":"Dir. Parques y Jardines","address":" \r\nAv. Tesistan 801 Sta. Margarita 45100"},
    {"name":"Reinicio de obras de urbanizaci\u00F3n","points":[{"lat":20.7354655664891, "lng":-103.377163410187}],"place":"Sub-Dir. T\u00E9cnica","address":" \r\n Av. Parres Arias esquina Perif\u00E9rico S\/N Parque Industrial Belenes 45145"},
    {"name":"Relotificaciones","points":[{"lat":20.7354655664891, "lng":-103.377163410187}],"place":"Sub-Dir. T\u00E9cnica","address":" \r\n Av. Parres Arias esquina Perif\u00E9rico S\/N Parque Industrial Belenes 45145"},
    {"name":"Renovaci\u00F3n y autorizaci\u00F3n de bit\u00E1cora de edificaci\u00F3n","points":[{"lat":20.7354655664891, "lng":-103.377163410187}],"place":"Sub-Dir. T\u00E9cnica","address":" \r\n Av. Parres Arias esquina Perif\u00E9rico S\/N Parque Industrial Belenes 45145"},
    {"name":"Renta y pr\u00E9stamo de espacios culturales","points":[{"lat":20.7217998504639, "lng":-103.393997192383}],"place":"Sub-Dir. de Acci\u00F3n Cultural","address":" \r\nVicente Guerrero 233 La Huerta 45160"},
    {"name":"Reparaci\u00F3n de circuito","points":[{"lat":20.6585006713867, "lng":-103.446998596191}],"place":"Dir. Alumbrado","address":" \r\nAv. Guadalupe 6899 Chapalita Inn 45010"},
    {"name":"Reparaci\u00F3n y sustituci\u00F3n de la red de agua potable","points":[{"lat":20.6585006713867, "lng":-103.446998596191}],"place":"Dir. Agua y Alcantarillado","address":" \r\nAv. Guadalupe 6899 Chapalita Inn 45010"},
    {"name":"Reparaci\u00F3n y sustituci\u00F3n de tapas y anilletas","points":[{"lat":20.6585006713867, "lng":-103.446998596191}],"place":"Dir. Agua y Alcantarillado","address":" \r\nAv. Guadalupe 6899 Chapalita Inn 45010"},
    {"name":"Reparaci\u00F3n y sustituci\u00F3n de tuber\u00EDa en red de alcantarillado","points":[{"lat":20.6585006713867, "lng":-103.446998596191}],"place":"Dir. Agua y Alcantarillado","address":" \r\nAv. Guadalupe 6899 Chapalita Inn 45010"},
    {"name":"Reparaci\u00F3n de baches","points":[{"lat":20.6585006713867, "lng":-103.446998596191}],"place":"Dir. Mantenimiento de Pavimentos","address":" \r\nAv. Guadalupe 6899 Chapalita Inn 45010"},
    {"name":"Reportes de personas extraviadas","points":[{"lat":20.7300672447835, "lng":-103.384845256805}],"place":"Direcci\u00F3n Gral. de Seguridad Publica, Protecci\u00F3n Civil y Bomberos","address":" \r\nBoulevard Panamericano 301 Tepeyac 45100"},
    {"name":"Reposici\u00F3n de licencia de giro comercial","points":[{"lat":20.7356662438817, "lng":-103.377141952515}],"place":"Oficial\u00EDa Mayor Padr\u00F3n y Licencias","address":" \r\n Av. Parres Arias esquina Perif\u00E9rico s\/n Parque Industrial Belenes 45140"},
    {"name":"Reservaci\u00F3n para visita guiada en el Museo de Arte de Zapopan|Grupos escolares","points":[{"lat":20.7208003997803, "lng":-103.389999389648}],"place":"Museo de Arte Zapopan","address":" \r\nAndador 20 De Noviembre 166 Cabecera Municipal 45100"},
    {"name":"Reservaci\u00F3n para visita guiada en el Museo de Arte de Zapopan|P\u00FAblico general","points":[{"lat":20.7208003997803, "lng":-103.389999389648}],"place":"Museo de Arte Zapopan","address":" \r\nAndador 20 De Noviembre 166 Cabecera Municipal 45100"},
    {"name":"Programa de mantenimiento a fuentes y monumentos p\u00FAblicos","points":[{"lat":20.725700378418, "lng":-103.379997253418}],"place":"Dir. Mantenimiento Urbano","address":" \r\nSta. Luc\u00EDa 373 Tepeyac 45100"},
    {"name":"Programa de Retiro de Animales Muertos.","points":[{"lat":20.725700378418, "lng":-103.379997253418}],"place":"Dir. Mantenimiento Urbano","address":" \r\nSta. Luc\u00EDa 373 Tepeyac 45100"},
    {"name":"Dictamen para el retiro o reubicaci\u00F3n de poste o luminaria de alumbrado p\u00FAblico","points":[{"lat":20.6585006713867, "lng":-103.446998596191}],"place":"Dir. Alumbrado","address":" \r\nAv. Guadalupe 6899 Chapalita Inn 45010"},
    {"name":"Revisi\u00f3n de informes financieros de asociaciones vecinales o de colonos","points":[{"lat":20.7205009460449, "lng":-103.393997192383}],"place":"Direcci\u00F3n General de Desarrollo Social y Humano","address":" \r\nG\u00F3mez Far\u00EDas 122 Linda Vista 45100"},
    {"name":"Revisi\u00F3n de proyectos de escrituras de donaci\u00F3n y compraventa","points":[{"lat":20.7295655322454, "lng":-103.39076757431}],"place":"Dir. Jur\u00EDdica Consultiva ","address":" \r\nAv. Juan Pablo II 80 El Vigia 45100"},
    {"name":"Riego de \u00E1reas verdes municipales.","points":[{"lat":20.7302879977735, "lng":-103.403395414352}],"place":"Dir. Parques y Jardines","address":" \r\nAv. Tesistan 801 Sta. Margarita 45100"},
    {"name":"Programa de Saneamiento de Canales y Arroyos.","points":[{"lat":20.725700378418, "lng":-103.379997253418}],"place":"Dir. Mantenimiento Urbano","address":" \r\nSta. Luc\u00EDa 373 Tepeyac 45100"},
    {"name":"Seguimiento de solicitudes ciudadanas","points":[{"lat":20.7219009399414, "lng":-103.389999389648}],"place":"Dir. de Atenci\u00f3n Ciudadana","address":" \r\nAv. Hidalgo , Planta Baja, Palacio Mpl. 151 Cabecera Municipal 45100"},
    {"name":"Sensibilizaci\u00F3n y concientizaci\u00F3n hacia una cultura de inclusi\u00F3n.","points":[{"lat":20.7367000579834, "lng":-103.402000427246}],"place":"\u00C1rea de Vinculaci\u00F3n Laboral para la Discapacidad","address":" \r\nAv. Laureles 777 Unidad FOVISSSTE 45149"},
    {"name":"Servicio de estacionamiento con acomodadores de veh\u00EDculos (SEAV)","points":[{"lat":20.7516994476318, "lng":-103.361999511719}],"place":"Dir. Estacionometros","address":" \r\nEmiliano Zapata 29 Cabecera Municipal 45100"},
    {"name":"Servicio de estacionamiento p\u00FAblico","points":[{"lat":20.7516994476318, "lng":-103.361999511719}],"place":"Dir. Estacionometros","address":" \r\nEmiliano Zapata 29 Cabecera Municipal 45100"},
    {"name":"Servicio de estacionamiento p\u00FAblico eventual (EPE)","points":[{"lat":20.7516994476318, "lng":-103.361999511719}],"place":"Dir. Estacionometros","address":" \r\nEmiliano Zapata 29 Cabecera Municipal 45100"},
    {"name":"Servicio de publicaci\u00f3n de vacantes para empresas externas","points":[{"lat":20.7205143525417, "lng":-103.391003608704}],"place":"Dir. Recursos Humanos","address":" \r\nUnidad Bas\u00EDlica, 3er. Nivel s\/n Cabecera Municipal 45100"},
    {"name":"Servicios bibliotecarios","points":[{"lat":20.7217998504639, "lng":-103.393997192383}],"place":"Sub-Dir. de Formaci\u00F3n Cultural","address":" \r\nVicente Guerrero 233 La Huerta 45160"},
    {"name":"Sesiones de hemodi\u00E1lisis","points":[{"lat":20.7367000579834, "lng":-103.402000427246}],"place":"Departamento de Trabajo Social","address":" \r\nAv. Laureles, Esquina Perif\u00E9rico 1151 Unidad FOVISSSTE 45149"},
    {"name":"Solicitud de copias certificadas","points":[{"lat":20.7253109430942, "lng":-103.386701345444}],"place":"Procuradur\u00EDa Social y Ciudadana","address":" \r\nAv. Juan Pablo II 204 Tepeyac 45150"},
    {"name":"Solicitud de exhibiciones a escuelas por parte de escuadrones","points":[{"lat":20.7300672447835, "lng":-103.384845256805}],"place":"Direcci\u00F3n Gral. de Seguridad Publica, Protecci\u00F3n Civil y Bomberos","address":" \r\nBoulevard Panamericano 301 Tepeyac 45100"},
    {"name":"Solicitud de informaci\u00F3n p\u00FAblica","points":[{"lat":20.7210006713867, "lng":-103.391998291016}],"place":"Direcci\u00f3n de Transparencia y Acceso a la Informaci\u00f3n","address":" \r\nUnidad Administrativa Bas\u00EDlica. s\/n Of.29 Cabecera Municipal 45100"},
    {"name":"Solicitud de instalaci\u00F3n, retiro, rehabilitaci\u00F3n y adecuaci\u00F3n de topes","points":[{"lat":20.6585006713867, "lng":-103.446998596191}],"place":"Dir. Mantenimiento de Pavimentos","address":" \r\nAv. Guadalupe 6899 Chapalita Inn 45010"},
    {"name":"Solicitud de servicio de la banda de guerra","points":[{"lat":20.7300672447835, "lng":-103.384845256805}],"place":"Direcci\u00F3n Gral. de Seguridad Publica, Protecci\u00F3n Civil y Bomberos","address":" \r\nBoulevard Panamericano 301 Tepeyac 45100"},
    {"name":"Solicitud de servicio de la banda de m\u00FAsica","points":[{"lat":20.7300672447835, "lng":-103.384845256805}],"place":"Direcci\u00F3n Gral. de Seguridad Publica, Protecci\u00F3n Civil y Bomberos","address":" \r\nBoulevard Panamericano 301 Tepeyac 45100"},
    {"name":"Solicitud de visitas escolares a las instalaciones","points":[{"lat":20.7300672447835, "lng":-103.384845256805}],"place":"Direcci\u00F3n Gral. de Seguridad Publica, Protecci\u00F3n Civil y Bomberos","address":" \r\nBoulevard Panamericano 301 Tepeyac 45100"},
    {"name":"Descuento del impuesto predial a inmuebles con valor patrimonial","points":[{"lat":20.7354655664891, "lng":-103.377163410187}],"place":"Sub-Dir. T\u00E9cnica","address":" \r\n Av. Parres Arias esquina Perif\u00E9rico S\/N Parque Industrial Belenes 45145"},
    {"name":"Subdivisi\u00F3n","points":[{"lat":20.7354655664891, "lng":-103.377163410187}],"place":"Sub-Dir. T\u00E9cnica","address":" \r\n Av. Parres Arias esquina Perif\u00E9rico S\/N Parque Industrial Belenes 45145"},
    {"name":"Suspensi\u00F3n temporal de obras de urbanizaci\u00F3n","points":[{"lat":20.7354655664891, "lng":-103.377163410187}],"place":"Sub-Dir. T\u00E9cnica","address":" \r\n Av. Parres Arias esquina Perif\u00E9rico S\/N Parque Industrial Belenes 45145"},
    {"name":"Suspensi\u00F3n y reinicio de obra de edificaci\u00F3n","points":[{"lat":20.7354655664891, "lng":-103.377163410187}],"place":"Sub-Dir. T\u00E9cnica","address":" \r\n Av. Parres Arias esquina Perif\u00E9rico S\/N Parque Industrial Belenes 45145"},
    {"name":"Talleres de manejo de recursos del medio ambiente y reciclaje.","points":[{"lat":20.7546997070312, "lng":-103.373001098633}],"place":"Direcci\u00F3n General de Ecolog\u00EDa","address":" \r\nAv. de los Robles 1566 Jardines del Vergel 45180"},
    {"name":"Talleres Estrategia Buen Tatro Familias Unidas","points":[{"lat":20.7367000579834, "lng":-103.402000427246}],"place":"Coordinaci\u00F3n de Atenci\u00F3n Familiar","address":" \r\nCalle 1 330 Unidad FOVISSSTE 45149"},
    {"name":"Terapia de lenguaje","points":[{"lat":20.7367000579834, "lng":-103.402000427246}],"place":"Departamento de Atenci\u00F3n a Personas con Discapacidad","address":" \r\nAv. Laureles 777 Unidad FOVISSSTE 45149"},
    {"name":"Testimonial p\u00FAblica para registro extempor\u00E1neo","points":[{"lat":20.73672982962, "lng":-103.402065038681}],"place":"Sistema para el Desarrollo Integral de la Familia del Municipio de Zapopan","address":" \r\nAv. Laureles, Esquina Perif\u00E9rico 1151 Unidad FOVISSSTE 45149"},
    {"name":"Tr\u00E1mite de carta de buena conducta para aspirantes a academias de polic\u00EDa y ej\u00E9rcito nacional","points":[{"lat":20.7274081493859, "lng":-103.386079072952}],"place":"Coord. Gral. de Juzgados Municipales ","address":" \r\nAv. Juan Pablo II 252 Tepeyac 45150"},
    {"name":"Tr\u00E1mite de cesi\u00F3n de derechos de tianguis ","points":[{"lat":20.728311243626, "lng":-103.403250575066}],"place":"Dir. Mercados","address":" \r\nFray Francisco de Lorenzo Esq. Fray Toribio de Motolinia 100 Cabecera Municipal 45100"},
    {"name":"Tramite de licencia municipal de estacionamiento en centro comercial o vinculado","points":[{"lat":20.7356662438817, "lng":-103.377141952515}],"place":"Oficial\u00EDa Mayor Padr\u00F3n y Licencias","address":" \r\n Av. Parres Arias esquina Perif\u00E9rico s\/n Parque Industrial Belenes 45140"},
    {"name":"Tramite de licencia municipal de estacionamiento p\u00FAblico","points":[{"lat":20.7356662438817, "lng":-103.377141952515}],"place":"Oficial\u00EDa Mayor Padr\u00F3n y Licencias","address":" \r\n Av. Parres Arias esquina Perif\u00E9rico s\/n Parque Industrial Belenes 45140"},
    {"name":"Tr\u00E1mite para la concesi\u00F3n de un local en mercados municipales","points":[{"lat":20.728311243626, "lng":-103.403250575066}],"place":"Dir. Mercados","address":" \r\nFray Francisco de Lorenzo Esq. Fray Toribio de Motolinia 100 Cabecera Municipal 45100"},
    {"name":"Tr\u00E1mite para ocupar un espacio en tianguis","points":[{"lat":20.728311243626, "lng":-103.403250575066}],"place":"Dir. Mercados","address":" \r\nFray Francisco de Lorenzo Esq. Fray Toribio de Motolinia 100 Cabecera Municipal 45100"},
    {"name":"Transporte for\u00E1neo (poblaci\u00F3n en pobreza extrema)","points":[{"lat":20.7367000579834, "lng":-103.402000427246}],"place":"Departamento de Trabajo Social","address":" \r\nAv. Laureles, Esquina Perif\u00E9rico 1151 Unidad FOVISSSTE 45149"},
    {"name":"Traspaso de licencia de giro comercial","points":[{"lat":20.7356662438817, "lng":-103.377141952515}],"place":"Oficial\u00EDa Mayor Padr\u00F3n y Licencias","address":" \r\n Av. Parres Arias esquina Perif\u00E9rico s\/n Parque Industrial Belenes 45140"},
    {"name":"Tratamiento b\u00E1sico para perros y gatos.","points":[{"lat":20.7292003631592, "lng":-103.391998291016}],"place":"Depto. De Sanidad Animal","address":" \r\nAv. Laureles 380 Tepeyac 45100"},
    {"name":"Tratamiento especial para perros y gatos.","points":[{"lat":20.7292003631592, "lng":-103.391998291016}],"place":"Depto. De Sanidad Animal","address":" \r\nAv. Laureles 380 Tepeyac 45100"},
    {"name":"Tratamiento medio para perros y gatos","points":[{"lat":20.7292003631592, "lng":-103.391998291016}],"place":"Depto. De Sanidad Animal","address":" \r\nAv. Laureles 380 Tepeyac 45100"},
    {"name":"Traumatolog\u00EDa en Cruz Verde","points":[{"lat":17.1403007507324, "lng":-96.7567977905273}],"place":"Hospital General de Zapopan","address":" \r\nCol\u00F3n 289 Cabecera Municipal 45100"},
    {"name":"Urgencias","points":[{"lat":17.1403007507324, "lng":-96.7567977905273}],"place":"Hospital General de Zapopan","address":" \r\nCol\u00F3n 289 Cabecera Municipal 45100"},
    {"name":"Urgencias m\u00E9dicas","points":[{"lat":17.1403007507324, "lng":-96.7567977905273}],"place":"Hospital General de Zapopan","address":" \r\nCol\u00F3n 289 Cabecera Municipal 45100"},
    {"name":"Vacunaci\u00F3n preventiva doble","points":[{"lat":20.7292003631592, "lng":-103.391998291016}],"place":"Depto. De Sanidad Animal","address":" \r\nAv. Laureles 380 Tepeyac 45100"},
    {"name":"Vacunaci\u00F3n preventiva m\u00FAltiple","points":[{"lat":20.7292003631592, "lng":-103.391998291016}],"place":"Depto. De Sanidad Animal","address":" \r\nAv. Laureles 380 Tepeyac 45100"},
    {"name":"Validaci\u00f3n de anuencias de representantes vecinales para tramitar permisos o licencias municipales","points":[{"lat":20.7205009460449, "lng":-103.393997192383}],"place":"Direcci\u00F3n General de Desarrollo Social y Humano","address":" \r\nG\u00F3mez Far\u00EDas 122 Linda Vista 45100"},
    {"name":"VDRL anticuerpos HIV en Cruz Verde","points":[{"lat":17.1403007507324, "lng":-96.7567977905273}],"place":"Hospital General de Zapopan","address":" \r\nCol\u00F3n 289 Cabecera Municipal 45100"},
    {"name":"Venta de la Gaceta Municipal y otras publicaciones del Ayuntamiento","points":[{"lat":20.7296009063721, "lng":-103.38200378418}],"place":"Dir. de Archivo Municipal ","address":" \r\nDr. Luis de Farah 1080 Paraisos 45079"},
    {"name":"Venta de material org\u00E1nico (composta, astilla y le\u00F1a)","points":[{"lat":20.7302879977735, "lng":-103.403395414352}],"place":"Dir. Parques y Jardines","address":" \r\nAv. Tesistan 801 Sta. Margarita 45100"},
    {"name":"Visita al Bosque el Centinela.","points":[{"lat":20.7510574068368, "lng":-103.370275497437}],"place":"Dir. Protecci\u00F3n al Medio Ambiente","address":" \r\nAv. de los Robles 1566 Jardines del Vergel 45180"},
    {"name":"Recorridos guiados a escolares en UMA Villa Fantas\u00EDa","points":[{"lat":20.7224008958212, "lng":-103.383418321609}],"place":"Depto. Zool\u00F3gico Villa Fantas\u00EDa","address":" \r\nJuan Manuel 350 Tepeyac 45100"},
    {"name":"Vivienda contigo","points":[{"lat":20.7205009460449, "lng":-103.393997192383}],"place":"Direcci\u00F3n General de Desarrollo Social y Humano","address":" \r\nG\u00F3mez Far\u00EDas 122 Linda Vista 45100"},
    {"name":"Multas de estacionamiento y estacion\u00F3metros","points":[{"lat":20.7516994476318, "lng":-103.361999511719}],"place":"Dir. Estacionometros","address":" \r\nEmiliano Zapata 29 Cabecera Municipal 45100"},
    {"name":"CURP Clave Unica de Registro de Poblaci\u00F3n","points":[{"lat":","}],"place":"Gobierno Federal Tramite externo","address":" \r\nSin domicilio Sin n\u00famero Sin colonia 45100"},
    {"name":"Liberaci\u00F3n de Cartilla Militar","points":[{"lat":20.7205745617328, "lng":-103.391261100769}],"place":"Depto. de Junta Municipal de Reclutamiento ","address":" \r\nUnidad Bas\u00EDlica, Planta Baja Oficina 2, Frente a Bas\u00EDlica de Zapopan. s\/n Cabecera Municipal 45100"},
    {"name":"Refrendo de Licencias comerciales A y B","points":[{"lat":20.7356662438817, "lng":-103.377141952515}],"place":"Oficial\u00EDa Mayor Padr\u00F3n y Licencias","address":" \r\n Av. Parres Arias esquina Perif\u00E9rico s\/n Parque Industrial Belenes 45140"},
    {"name":"Certificado de no adeudo predial (catastral)","points":[{"lat":20.7370308430945, "lng":-103.376970291138}],"place":"Dir. de Catastro","address":" \r\nAv. Parres Arias esquina Perif\u00E9rico Norte S\/N Parque Industrial Belenes 45140"},
    {"name":"Licencia y\/o Permiso de Demolici\u00F3n","points":[{"lat":20.7354655664891, "lng":-103.377163410187}],"place":"Sub-Dir. T\u00E9cnica","address":" \r\n Av. Parres Arias esquina Perif\u00E9rico S\/N Parque Industrial Belenes 45145"},
    {"name":"Ampliaci\u00F3n de la vigencia de la licencia de Urbanizaci\u00F3n.","points":[{"lat":20.7354655664891, "lng":-103.377163410187}],"place":"Sub-Dir. T\u00E9cnica","address":" \r\n Av. Parres Arias esquina Perif\u00E9rico S\/N Parque Industrial Belenes 45145"},
    {"name":"Cambio de Proyecto Definitivo de Urbanizaci\u00F3n","points":[{"lat":20.7354655664891, "lng":-103.377163410187}],"place":"Sub-Dir. T\u00E9cnica","address":" \r\n Av. Parres Arias esquina Perif\u00E9rico S\/N Parque Industrial Belenes 45145"},
    {"name":"Cambio de Director Responsable de Urbanizaci\u00F3n","points":[{"lat":20.7354655664891, "lng":-103.377163410187}],"place":"Sub-Dir. T\u00E9cnica","address":" \r\n Av. Parres Arias esquina Perif\u00E9rico S\/N Parque Industrial Belenes 45145"},
    {"name":"Alineamiento y N\u00FAmero oficial (Simult\u00E1neas)","points":[{"lat":20.7354655664891, "lng":-103.377163410187}],"place":"Sub-Dir. T\u00E9cnica","address":" \r\n Av. Parres Arias esquina Perif\u00E9rico S\/N Parque Industrial Belenes 45145"},
    {"name":"Rectificaci\u00F3n de Dictamen de Trazo Usos, Destinos Espec\u00EDficos y\/o para Subdivisi\u00F3n","points":[{"lat":20.7354655664891, "lng":-103.377163410187}],"place":"Sub-Dir. T\u00E9cnica","address":" \r\n Av. Parres Arias esquina Perif\u00E9rico S\/N Parque Industrial Belenes 45145"},
    {"name":"Dictamen de Trazo Usos y Destinos para Subdivisi\u00F3n.","points":[{"lat":20.7354655664891, "lng":-103.377163410187}],"place":"Sub-Dir. T\u00E9cnica","address":" \r\n Av. Parres Arias esquina Perif\u00E9rico S\/N Parque Industrial Belenes 45145"},
    {"name":"Inscripci\u00F3n al padr\u00F3n de proveedores","points":[{"lat":20.7204340735831, "lng":-103.39106798172}],"place":"Dir. de Adquisiciones","address":" \r\nUnidad Bas\u00EDlica, Planta Baja s\/n Cabecera Municipal 45100"},
    {"name":"Inscripci\u00F3n al padr\u00F3n de Contratistas","points":[{"lat":20.7354454987352, "lng":-103.377270698547}],"place":"Dir. de Construcci\u00F3n","address":" \r\n Av. Parres Arias esquina Perif\u00E9rico S\/N Parque Industrial Belenes 45145"},
    {"name":"Programa Escuelas de Calidad (PEC)","points":[{"lat":20.7226015905318, "lng":-103.394157886505}],"place":"Dir. De Educaci\u00F3n Municipal","address":" \r\nVicente Guerrero 262 Cabecera Municipal 45100"},
    {"name":"Rehabilitaci\u00F3n de inmuebles escolares","points":[{"lat":20.7226015905318, "lng":-103.394157886505}],"place":"Dir. De Educaci\u00F3n Municipal","address":" \r\nVicente Guerrero 262 Cabecera Municipal 45100"},
    {"name":"Talleres de Verano","points":[{"lat":20.7226015905318, "lng":-103.394157886505}],"place":"Dir. De Educaci\u00F3n Municipal","address":" \r\nVicente Guerrero 262 Cabecera Municipal 45100"},
    {"name":"Talleres Psicopedag\u00F3gicos de Regularizaci\u00F3n Escolar","points":[{"lat":20.7226015905318, "lng":-103.394157886505}],"place":"Dir. De Educaci\u00F3n Municipal","address":" \r\nVicente Guerrero 262 Cabecera Municipal 45100"},
    {"name":"Est\u00EDmulos a la educaci\u00F3n b\u00E1sica","points":[{"lat":20.7226015905318, "lng":-103.394157886505}],"place":"Dir. De Educaci\u00F3n Municipal","address":" \r\nVicente Guerrero 262 Cabecera Municipal 45100"},
    {"name":"Programa de Apoyos Materiales para la Educaci\u00F3n (PAME)","points":[{"lat":20.7226015905318, "lng":-103.394157886505}],"place":"Dir. De Educaci\u00F3n Municipal","address":" \r\nVicente Guerrero 262 Cabecera Municipal 45100"},
    {"name":"Rescate de espacios p\u00FAblicos","points":[{"lat":20.7205009460449, "lng":-103.393997192383}],"place":"Direcci\u00F3n General de Desarrollo Social y Humano","address":" \r\nG\u00F3mez Far\u00EDas 122 Linda Vista 45100"},
    {"name":"3X1 para Migrantes","points":[{"lat":20.7205009460449, "lng":-103.393997192383}],"place":"Direcci\u00F3n General de Desarrollo Social y Humano","address":" \r\nG\u00F3mez Far\u00EDas 122 Linda Vista 45100"},
    {"name":"Programa Municipal Adulto Mayor","points":[{"lat":20.7205009460449, "lng":-103.393997192383}],"place":"Direcci\u00F3n General de Desarrollo Social y Humano","address":" \r\nG\u00F3mez Far\u00EDas 122 Linda Vista 45100"},
    {"name":"Atenci\u00F3n a la juventud Zapopan","points":[{"lat":20.7212009429932, "lng":-103.393997192383}],"place":"Instituto De La Juventud ","address":" \r\nAndador Mar\u00EDa Cristina Pe\u00F1a 247 La Huerta 45100"},
    {"name":"Barrio Joven","points":[{"lat":20.7212009429932, "lng":-103.393997192383}],"place":"Instituto De La Juventud ","address":" \r\nAndador Mar\u00EDa Cristina Pe\u00F1a 247 La Huerta 45100"},
    {"name":"Soy joven, soy Zapopan","points":[{"lat":20.7212009429932, "lng":-103.393997192383}],"place":"Instituto De La Juventud ","address":" \r\nAndador Mar\u00EDa Cristina Pe\u00F1a 247 La Huerta 45100"},
    {"name":"Prevenci\u00F3n y habilidades de vida","points":[{"lat":20.7212009429932, "lng":-103.393997192383}],"place":"Instituto De La Juventud ","address":" \r\nAndador Mar\u00EDa Cristina Pe\u00F1a 247 La Huerta 45100"},
    {"name":"Eventos, ferias y d\u00EDas conmemorativos.","points":[{"lat":20.7212009429932, "lng":-103.393997192383}],"place":"Instituto Municipal De La Mujer Zapopana","address":" \r\nAndador Mar\u00EDa Cristina Pe\u00F1a 247 La Huerta 45100"},
    {"name":"Jornadas Itinerantes","points":[{"lat":20.7212009429932, "lng":-103.393997192383}],"place":"Instituto Municipal De La Mujer Zapopana","address":" \r\nAndador Mar\u00EDa Cristina Pe\u00F1a 247 La Huerta 45100"},
    {"name":"Feria del Empleo para la Mujer","points":[{"lat":20.7212009429932, "lng":-103.393997192383}],"place":"Instituto Municipal De La Mujer Zapopana","address":" \r\nAndador Mar\u00EDa Cristina Pe\u00F1a 247 La Huerta 45100"},
    {"name":"Jefas de Familia y Mujeres en Situaci\u00F3n Vulnerable","points":[{"lat":20.7212009429932, "lng":-103.393997192383}],"place":"Instituto Municipal De La Mujer Zapopana","address":" \r\nAndador Mar\u00EDa Cristina Pe\u00F1a 247 La Huerta 45100"},
    {"name":"Activaci\u00F3n de Espacios P\u00FAblicos","points":[{"lat":20.7212009429932, "lng":-103.393997192383}],"place":"Dir. De Programaci\u00F3n","address":" \r\nAndador Mar\u00EDa Cristina Pe\u00F1a 247 La Huerta 45100"},
    {"name":"Educaci\u00F3n Ambiental","points":[{"lat":20.7205009460449, "lng":-103.393997192383}],"place":"Direcci\u00F3n General de Desarrollo Social y Humano","address":" \r\nG\u00F3mez Far\u00EDas 122 Linda Vista 45100"},
    {"name":"Programas Oportunidades","points":[{"lat":20.7205009460449, "lng":-103.393997192383}],"place":"Direcci\u00F3n General de Desarrollo Social y Humano","address":" \r\nG\u00F3mez Far\u00EDas 122 Linda Vista 45100"},
    {"name":"Solicitud de datos del Centro de Informaci\u00F3n Municipal","points":[{"lat":20.7212009429932, "lng":-103.393997192383}],"place":"Dir. De Programaci\u00F3n","address":" \r\nAndador Mar\u00EDa Cristina Pe\u00F1a 247 La Huerta 45100"},
    {"name":"Venta de terrenos, gavetas verticales y nichos","points":[{"lat":20.7473351765714, "lng":-103.388793468475}],"place":"Dir. Cementerios","address":" \r\nIndustria de la Construcci\u00F3n 124 Zapopan Industrial Norte 45130"},
    {"name":"Pago de mantenimiento ","points":[{"lat":20.7473351765714, "lng":-103.388793468475}],"place":"Dir. Cementerios","address":" \r\nIndustria de la Construcci\u00F3n 124 Zapopan Industrial Norte 45130"},
    {"name":"Programa de Limpieza Urbana de Calles y Avenidas","points":[{"lat":20.725700378418, "lng":-103.379997253418}],"place":"Dir. Mantenimiento Urbano","address":" \r\nSta. Luc\u00EDa 373 Tepeyac 45100"},
    {"name":"Contrato de Obra P\u00FAblica","points":[{"lat":20.7295655322454, "lng":-103.39076757431}],"place":"Dir. Jur\u00EDdica Consultiva ","address":" \r\nAv. Juan Pablo II 80 El Vigia 45100"},
    {"name":"Logistica de Ferias Locales y de Cooperativas","points":[{"lat":20.692699432373, "lng":-103.452003479004}],"place":"Dir. de Fomento Cooperativo","address":" \r\nAv. Vallarta 6503-F65 Ciudad Granja 45010"},
    {"name":"Promoci\u00F3n y difusi\u00F3n de los programas de fomento cooperativo","points":[{"lat":20.692699432373, "lng":-103.452003479004}],"place":"Dir. de Fomento Cooperativo","address":" \r\nAv. Vallarta 6503-F65 Ciudad Granja 45010"},
    {"name":"Visto Bueno de proyectos de arbolado y de entrega recepci\u00F3n.","points":[{"lat":20.7302879977735, "lng":-103.403395414352}],"place":"Dir. Parques y Jardines","address":" \r\nAv. Tesistan 801 Sta. Margarita 45100"},
    {"name":"Atenci\u00F3n a congresos, convenciones, ferias y eventos","points":[{"lat":20.692699432373, "lng":-103.452003479004}],"place":"Dir. de Turismo","address":" \r\nAv. Vallarta 6503-F65 Ciudad Granja 45010"},
    {"name":"Incentivo al desarrollo Agropecuario","points":[{"lat":20.7509002685547, "lng":-103.38500213623}],"place":"Dir. de Desarrollo Agropecuario","address":" \r\nPaseo de los Robles 1566 Jardines el Vergel 45700"},
    {"name":"Procedimiento para recibir en donaci\u00F3n o comodato bienes muebles o inmuebles propiedad municipal","points":[{"lat":20.7205143525417, "lng":-103.391175270081}],"place":"Dir. de Patrimonio","address":" \r\nUnidad Bas\u00EDlica, 2do Nivel Of. 28 s\/n Cabecera Municipal 45100"},
    {"name":"Apertura de cuenta CORETT y PROCEDE.","points":[{"lat":20.7370308430945, "lng":-103.376970291138}],"place":"Dir. de Catastro","address":" \r\nAv. Parres Arias esquina Perif\u00E9rico Norte S\/N Parque Industrial Belenes 45140"},
    {"name":"Apertura de cuenta RAN","points":[{"lat":20.7370308430945, "lng":-103.376970291138}],"place":"Dir. de Catastro","address":" \r\nAv. Parres Arias esquina Perif\u00E9rico Norte S\/N Parque Industrial Belenes 45140"},
    {"name":"Apertura de r\u00E9gimen de condominio.","points":[{"lat":20.7370308430945, "lng":-103.376970291138}],"place":"Dir. de Catastro","address":" \r\nAv. Parres Arias esquina Perif\u00E9rico Norte S\/N Parque Industrial Belenes 45140"},
    {"name":"Cambio de sector.","points":[{"lat":20.7370308430945, "lng":-103.376970291138}],"place":"Dir. de Catastro","address":" \r\nAv. Parres Arias esquina Perif\u00E9rico Norte S\/N Parque Industrial Belenes 45140"},
    {"name":"Subdivisi\u00F3n de predios","points":[{"lat":20.7370308430945, "lng":-103.376970291138}],"place":"Dir. de Catastro","address":" \r\nAv. Parres Arias esquina Perif\u00E9rico Norte S\/N Parque Industrial Belenes 45140"},
    {"name":"Talleres de verano en Centros Culturales","points":[{"lat":20.7217998504639, "lng":-103.393997192383}],"place":"Sub-Dir. de Formaci\u00F3n Cultural","address":" \r\nVicente Guerrero 233 La Huerta 45160"},
    {"name":"Talleres ordinarios en los Centros Culturales","points":[{"lat":20.7217998504639, "lng":-103.393997192383}],"place":"Sub-Dir. de Formaci\u00F3n Cultural","address":" \r\nVicente Guerrero 233 La Huerta 45160"},
    {"name":"Actualizaci\u00F3n de nombre de propietario","points":[{"lat":20.7370308430945, "lng":-103.376970291138}],"place":"Dir. de Catastro","address":" \r\nAv. Parres Arias esquina Perif\u00E9rico Norte S\/N Parque Industrial Belenes 45140"},
    {"name":"Apertura de cuenta COMUR","points":[{"lat":20.7370308430945, "lng":-103.376970291138}],"place":"Dir. de Catastro","address":" \r\nAv. Parres Arias esquina Perif\u00E9rico Norte S\/N Parque Industrial Belenes 45140"},
    {"name":"Solicitud de copia simple o certificada de Protecci\u00F3n Civil y Bomberos","points":[{"lat":20.7300271078416, "lng":-103.384126424789}],"place":"Dir. de Protecci\u00F3n Civil y Bomberos","address":" \r\nAv. Luis Farah 460 Tepeyac 45150"},
    {"name":"Dictamen (valoraci\u00F3n de riesgo estructural)","points":[{"lat":20.7300672447835, "lng":-103.384845256805}],"place":"Direcci\u00F3n Gral. de Seguridad Publica, Protecci\u00F3n Civil y Bomberos","address":" \r\nBoulevard Panamericano 301 Tepeyac 45100"},
    {"name":"Visto bueno de estudio geof\u00EDsico","points":[{"lat":20.7300271078416, "lng":-103.384126424789}],"place":"Dir. de Protecci\u00F3n Civil y Bomberos","address":" \r\nAv. Luis Farah 460 Tepeyac 45150"},
    {"name":"Visto bueno de mec\u00E1nica de suelo","points":[{"lat":20.7300672447835, "lng":-103.384845256805}],"place":"Direcci\u00F3n Gral. de Seguridad Publica, Protecci\u00F3n Civil y Bomberos","address":" \r\nBoulevard Panamericano 301 Tepeyac 45100"},
    {"name":"Atenci\u00F3n a reportes de atenci\u00F3n ciudadana Protecci\u00F3n Civil y Bomberos","points":[{"lat":20.7300672447835, "lng":-103.384845256805}],"place":"Direcci\u00F3n Gral. de Seguridad Publica, Protecci\u00F3n Civil y Bomberos","address":" \r\nBoulevard Panamericano 301 Tepeyac 45100"},
    {"name":"Revisi\u00F3n y visto bueno de plan operativo para eventos masivos","points":[{"lat":20.7300672447835, "lng":-103.384845256805}],"place":"Direcci\u00F3n Gral. de Seguridad Publica, Protecci\u00F3n Civil y Bomberos","address":" \r\nBoulevard Panamericano 301 Tepeyac 45100"},
    {"name":"Formato para transmisiones patrimoniales","points":[{"lat":20.7370308430945, "lng":-103.376970291138}],"place":"Dir. de Catastro","address":" \r\nAv. Parres Arias esquina Perif\u00E9rico Norte S\/N Parque Industrial Belenes 45140"},
    {"name":"Revisi\u00F3n y autorizaci\u00F3n de aval\u00FAos","points":[{"lat":20.7370308430945, "lng":-103.376970291138}],"place":"Dir. de Catastro","address":" \r\nAv. Parres Arias esquina Perif\u00E9rico Norte S\/N Parque Industrial Belenes 45140"},
    {"name":"Revisi\u00F3n y VoBo de Programa Especifico de Protecci\u00F3n Civil","points":[{"lat":20.7300672447835, "lng":-103.384845256805}],"place":"Direcci\u00F3n Gral. de Seguridad Publica, Protecci\u00F3n Civil y Bomberos","address":" \r\nBoulevard Panamericano 301 Tepeyac 45100"},
    {"name":"Inspecci\u00F3n para tr\u00E1mite de licencia","points":[{"lat":20.7300271078416, "lng":-103.384126424789}],"place":"Dir. de Protecci\u00F3n Civil y Bomberos","address":" \r\nAv. Luis Farah 460 Tepeyac 45150"},
    {"name":"Inspecci\u00F3n a petici\u00F3n del interesado","points":[{"lat":20.7300271078416, "lng":-103.384126424789}],"place":"Dir. de Protecci\u00F3n Civil y Bomberos","address":" \r\nAv. Luis Farah 460 Tepeyac 45150"},
    {"name":"Capacitaci\u00F3n de Protecci\u00F3n Civil a Dependencias","points":[{"lat":20.7300271078416, "lng":-103.384126424789}],"place":"Dir. de Protecci\u00F3n Civil y Bomberos","address":" \r\nAv. Luis Farah 460 Tepeyac 45150"},
    {"name":"Capacitacion a la comunidad","points":[{"lat":20.7300672447835, "lng":-103.384845256805}],"place":"Direcci\u00F3n Gral. de Seguridad Publica, Protecci\u00F3n Civil y Bomberos","address":" \r\nBoulevard Panamericano 301 Tepeyac 45100"},
    {"name":"Capacitaci\u00F3n externa dirigida al sector privado, educativo, comercio y de servicios.","points":[{"lat":20.7300271078416, "lng":-103.384126424789}],"place":"Dir. de Protecci\u00F3n Civil y Bomberos","address":" \r\nAv. Luis Farah 460 Tepeyac 45150"},
    {"name":"Asistencia como evaluadores y observadores de Simulacros","points":[{"lat":20.7300672447835, "lng":-103.384845256805}],"place":"Direcci\u00F3n Gral. de Seguridad Publica, Protecci\u00F3n Civil y Bomberos","address":" \r\nBoulevard Panamericano 301 Tepeyac 45100"},
    {"name":"Verificaci\u00F3n de zona de riesgo","points":[{"lat":20.7300672447835, "lng":-103.384845256805}],"place":"Direcci\u00F3n Gral. de Seguridad Publica, Protecci\u00F3n Civil y Bomberos","address":" \r\nBoulevard Panamericano 301 Tepeyac 45100"},
    {"name":"Exhibici\u00F3n de material y equipo de protecci\u00F3n personal de bomberos, pl\u00E1ticas de prevenci\u00F3n de incendios en el hogar","points":[{"lat":20.7300271078416, "lng":-103.384126424789}],"place":"Dir. de Protecci\u00F3n Civil y Bomberos","address":" \r\nAv. Luis Farah 460 Tepeyac 45150"},
    {"name":"Pl\u00E1ticas en prevenci\u00F3n de incendios y accidentes en el hogar, prevenci\u00F3n de accidentes viales (12-15 a\u00F1os)","points":[{"lat":20.7300271078416, "lng":-103.384126424789}],"place":"Dir. de Protecci\u00F3n Civil y Bomberos","address":" \r\nAv. Luis Farah 460 Tepeyac 45150"},
    {"name":"Pl\u00E1ticas de prevenci\u00F3n de accidentes en el hogar y accidentes viales (6-12a\u00F1os)","points":[{"lat":20.7300271078416, "lng":-103.384126424789}],"place":"Dir. de Protecci\u00F3n Civil y Bomberos","address":" \r\nAv. Luis Farah 460 Tepeyac 45150"},
    {"name":"Mis primeros pasos en prevenci\u00F3n de incendios y accidentes en el hogar (3-6 a\u00F1os)","points":[{"lat":20.7300271078416, "lng":-103.384126424789}],"place":"Dir. de Protecci\u00F3n Civil y Bomberos","address":" \r\nAv. Luis Farah 460 Tepeyac 45150"},
    {"name":"Asesor\u00EDas para la realizaci\u00F3n de Planes Operativos y\/o Programas Espec\u00EDficos de Protecci\u00F3n Civil","points":[{"lat":20.7300271078416, "lng":-103.384126424789}],"place":"Dir. de Protecci\u00F3n Civil y Bomberos","address":" \r\nAv. Luis Farah 460 Tepeyac 45150"},
    {"name":"Inspeccci\u00F3n de reporte ciudadano Protecci\u00F3n Civil Y Bomberos","points":[{"lat":20.7300271078416, "lng":-103.384126424789}],"place":"Dir. de Protecci\u00F3n Civil y Bomberos","address":" \r\nAv. Luis Farah 460 Tepeyac 45150"},
    {"name":"Inspecci\u00F3n por siniestro","points":[{"lat":20.7300271078416, "lng":-103.384126424789}],"place":"Dir. de Protecci\u00F3n Civil y Bomberos","address":" \r\nAv. Luis Farah 460 Tepeyac 45150"},
    {"name":"Visto bueno para la quema de pirotecnia","points":[{"lat":20.7300672447835, "lng":-103.384845256805}],"place":"Direcci\u00F3n Gral. de Seguridad Publica, Protecci\u00F3n Civil y Bomberos","address":" \r\nBoulevard Panamericano 301 Tepeyac 45100"},
    {"name":"Registro para acreditar como capacitador externo","points":[{"lat":20.7301998138428, "lng":-103.384002685547}],"place":"Sub-Dir. de Protecci\u00F3n Civil","address":" \r\nDr. Luis de Farah 518 Los Paraisos 45157"},
    {"name":"Registro para acreditar como consultor externo","points":[{"lat":20.7300271078416, "lng":-103.384126424789}],"place":"Dir. de Protecci\u00F3n Civil y Bomberos","address":" \r\nAv. Luis Farah 460 Tepeyac 45150"},
    {"name":"Oficial\u00EDa de partes","points":[{"lat":20.7295655322454, "lng":-103.389512300491}],"place":"Direcci\u00F3n General de Inspecci\u00F3n de Reglamentos","address":" \r\nAv. Laureles s\/n El Vigia 45140"},
    {"name":"Atenci\u00F3n a Reportes de Atenci\u00F3n Ciudadana de Seguridad P\u00FAblica","points":[{"lat":20.7300672447835, "lng":-103.384845256805}],"place":"Direcci\u00F3n Gral. de Seguridad Publica, Protecci\u00F3n Civil y Bomberos","address":" \r\nBoulevard Panamericano 301 Tepeyac 45100"},
    {"name":"Derecho de uso a temporalidad por el termino de 5 a\u00F1os","points":[{"lat":20.7473351765714, "lng":-103.388793468475}],"place":"Dir. Cementerios","address":" \r\nIndustria de la Construcci\u00F3n 124 Zapopan Industrial Norte 45130"},
    {"name":"Cambio de Propietario:|Reposici\u00F3n de T\u00EDtulo","points":[{"lat":20.7473351765714, "lng":-103.388793468475}],"place":"Dir. Cementerios","address":" \r\nIndustria de la Construcci\u00F3n 124 Zapopan Industrial Norte 45130"},
    {"name":"Refrendos","points":[{"lat":20.7473351765714, "lng":-103.388793468475}],"place":"Dir. Cementerios","address":" \r\nIndustria de la Construcci\u00F3n 124 Zapopan Industrial Norte 45130"},
    {"name":"Manejo, limpieza y entrega de varillas","points":[{"lat":20.7474002838135, "lng":-103.38200378418}],"place":"Dir. Rastro Municipal","address":" \r\nAv. del Rastro s\/n Bosques de San Isidro 45140"},
    {"name":"Capilla de velaci\u00F3n municipal gratuita","points":[{"lat":20.7473351765714, "lng":-103.388793468475}],"place":"Dir. Cementerios","address":" \r\nIndustria de la Construcci\u00F3n 124 Zapopan Industrial Norte 45130"},
    {"name":"Programa de ingresos carreteros y l\u00EDmites municipales.","points":[{"lat":20.725700378418, "lng":-103.379997253418}],"place":"Dir. Mantenimiento Urbano","address":" \r\nSta. Luc\u00EDa 373 Tepeyac 45100"},
    {"name":"Derecho de uso a temporalidad por el termino de 6 a\u00F1os","points":[{"lat":20.7473351765714, "lng":-103.388793468475}],"place":"Dir. Cementerios","address":" \r\nIndustria de la Construcci\u00F3n 124 Zapopan Industrial Norte 45130"},
    {"name":"Copia de planos certificados","points":[{"lat":20.7370308430945, "lng":-103.376970291138}],"place":"Dir. de Catastro","address":" \r\nAv. Parres Arias esquina Perif\u00E9rico Norte S\/N Parque Industrial Belenes 45140"},
    {"name":"Sistema Integral de Capacitaci\u00F3n Empresarial (SICE)","points":[{"lat":20.692699432373, "lng":-103.452003479004}],"place":"Dir. de Zapopan Emprende","address":" \r\nAv. Vallarta 6503-F65 Ciudad Granja 45010"}
]